detention_facility_code,detention_facility_name,address,city,county,state,zip,aor,latitude,longitude,type_detailed,type_grouped
AAORDMD,Ordnance Road Correctional Center,600 E. Ordnance Road,Glen Burnie,Anne Arundel,MD,21226,Baltimore,39.199695,-76.59393,IGSA,Non-Dedicated
ABIRJVA,B.R.R.J. Abingdon,510 Ninth Street,Lynchburg,Lynchburg City,VA,24504,Washington,37.413162,-79.145069,Unknown,Other/Unknown
ABQHOLD,Albuquerque Hold Room,1720 Randolph Road,Albuquerque,Bernalillo,NM,87106,El Paso,35.052654,-106.629298,Hold,Hold/Staging
ABRMCTX,Abilene Regional Med Ctr,6250 Us-83,Abilene,Taylor,TX,79606,Dallas,32.359857,-99.743409,Hospital,Medical
ABRXSPA,Abraxas Academy Detention Center,1000 Academy Drive,Morgantown,Berks,PA,19543,Philadelphia,40.19177,-75.91592,Juvenile,Family/Youth
ABTHOLD,Abilene Hold Room,12071 Fm 3522,Abilene,Jones,TX,79601,Dallas,32.562128,-99.635383,Hold,Hold/Staging
ADACOID,Ada County Jail,7210 Barrister Drive,Boise,Ada,ID,83704,Salt Lake City,43.606755,-116.269811,IGSA,Non-Dedicated
ADAIRKY,Adair County Regional Jail,204 Greensburg Street,Columbia,Adair,KY,42728,Chicago,37.103848,-85.306634,Other,Other/Unknown
ADAMSCO,Adams County Jail,1901 E Bridge Street,Brighton,Adams,CO,80601,Denver,39.986877,-104.799156,IGSA,Non-Dedicated
ADAMSMS,Adams County Det Center,20 Hobo Fork Rd.,Natchez,Adams,MS,39120,New Orleans,31.569175,-91.230469,DIGSA,Dedicated
ADAMSWA,Adams County,210 W Braodway,Ritzville,Adams,WA,99169,Seattle,47.12747,-118.38267,IGSA,Non-Dedicated
ADDCOVT,Addison County Jail,35 Court Street,Middlebury,Addison,VT,05753,Boston,44.011519,-73.163545,IGSA,Non-Dedicated
ADLNTCA,Adelanto ICE Processing Center,10250 Rancho Road,Adelanto,San Bernardino,CA,92301,Los Angeles,34.557729,-117.441865,CDF,Dedicated
ADVHBCA,Adventist Health Bakersfield,2615 Chester Avenue,Bakersfield,Kern,CA,93301,San Francisco,35.383374,-119.020654,Hospital,Medical
ADVHCHI,Adventist Health Castle,640 Ulukahiki St.,Kailua,Honolulu,HI,96734,San Francisco,21.380854,-157.75778,Medical,Medical
ADVHDCA,Adventist Health Delano,1401 Garces Highway,Delano,Kern,CA,93215,San Francisco,35.768842,-119.247054,Hospital,Medical
AFRC,Artesia Family Residential Center,1300 W. Richey Avenue,Artesia,Eddy,NM,88210,El Paso,32.857148,-104.415332,Family,Family/Youth
AGAHOLD,Agana INS,108 Herman Cortez Ave,Hagatna,Guam,GU,96910,San Francisco,13.476607,144.747679,Hold,Hold/Staging
AGC,Aguadilla SPC,505 Corner Belt And Gun St.,Aguadilla,Aguadilla,PR,00603,Miami,18.49428,-67.14213,Hold,Hold/Staging
AGMDCCA,Anaheim Global Medical Center,1025 S Anaheim Blvd,Anaheim,Orange,CA,92805,Los Angeles,33.820504,-117.90963,Hospital,Medical
AHGRFND,Altru Hospital Grand Forks,1200 S Columbia Rd,Grand Forks,Grand Forks,ND,58201,St. Paul,47.911344,-97.069144,Medical,Medical
AIRHOPR,"Airport Hotel, Saj.",Luis Munoz Marin International Airport,Isla Verde,Carolina,PR,00913,Miami,18.439917,-66.004817,Hotel,Hotel
AKCOOKI,"Cook Inlet Pretrial, Anch",1300 E 4th Avenue,Anchorage,Anchorage,AK,99501,Seattle,61.218545,-149.871,IGSA,Non-Dedicated
AKFAIRB,Fairbanks Corr Ctr,1931 Eagan Street,Fairbanks,Fairbanks North Star,AK,99701,Seattle,64.834574,-147.760793,IGSA,Non-Dedicated
AKGSCCC,Goose Creek Correctional Center,22301 Alsop Rd,Wasilla,Matanuska-Susitna,AK,99654,Seattle,61.358309,-150.006177,Unknown,Other/Unknown
AKHIGHL,Highland Mtn Cor Ctr,9101 Hesterberg Road,Eagle River,Anchorage,AK,99577,Seattle,61.303929,-149.580175,USMS IGA,Federal
AKKETCH,Ketchikan Regional CC,1201 Schoenbar Road,Ketchikan,Ketchikan Gateway,AK,99901,Seattle,55.348401,-131.649562,IGSA,Non-Dedicated
AKLEMON,"Lemon Creek, Juneau,AK",2000 Lemon Creek Road,Juneau,City And Borough Of Juneau,AK,99801,Seattle,58.361196,-134.487648,USMS IGA,Federal
AKMATSU,"Matsu Pretrial, Palmer AK",339 E. Dogwood,Palmer,Matanuska-Susitna,AK,99645,Seattle,61.601371,-149.118654,IGSA,Non-Dedicated
AKMCYOU,McLaughlin Youth Center,2600 Providence Dr,Anchorage,Anchorage,AK,99508,Seattle,61.187969,-149.83187,Juvenile,Family/Youth
AKPALMC,Palmer Correctional Cente,Mile 58 Glenn Highway,Palmer,Matanuska-Susitna,AK,99645,Seattle,61.587605,-149.126953,IGSA,Non-Dedicated
AKPSYNJ,Anne Klein Phsychiatric Institute,Sullivan Way,W. Trenton,Mercer,NJ,08628,Newark,40.256657,-74.815971,Hospital,Medical
AKWILCC,Wildwood State Corr. Ctr.,#10 Chugach Avenue,Kenai,Kenai Peninsula,AK,99611,Seattle,60.58308,-151.300134,IGSA,Non-Dedicated
AKWILPT,Wildwood Pre-Trial Fac.,5 Chugach Avenue,Kenai,Kenai Peninsula,AK,99611,Seattle,60.583086,-151.300134,IGSA,Non-Dedicated
ALAMCNC,Alamance Co. Det. Facility,109 South Maple Street,Graham,Alamance,NC,27253,Atlanta,36.068555,-79.402463,IGSA,Non-Dedicated
ALAMOCO,Alamosa County Jail,1315 17th Street,Alamosa,Alamosa,CO,81101,Denver,37.455331,-105.87605,Unknown,Other/Unknown
ALAMOTX,Alamo Police Dept.,840 W Austin St,Alamo ,Hidalgo,TX,78516,Harlingen,26.181502,-98.119115,Unknown,Other/Unknown
ALBCONY,Albany County Jail,840 Albany Shaker Road,Albany,Albany,NY,12211,Buffalo,42.75141,-73.81536,USMS IGA,Federal
ALBEMVA,Albemarle-Charlottesville,160 Peregory Ln,Charlottesville,Albemarle,VA,22901,Washington,38.006074,-78.494559,IGSA,Non-Dedicated
ALBHOLD,Albany Holdroom,1086 Troy-Schenectady Rd,Latham,Albany,NY,12110,Buffalo,42.753381,-73.769379,Hold,Hold/Staging
ALESSAZ,Stes On Scottsdale Casa De Alegria,,Scottsdale,Maricopa,AZ,,Phoenix,33.57551,-111.927296,Family Staging,Family/Youth
ALEXAAL,Alexandria City Jail,2003 Mill Road,Alexandria,Alexandria City,VA,22314,Washington,38.79813,-77.064668,Unknown,Other/Unknown
ALEXAVA,Alexandria City Jail,2003 Mill Road,Alexandria,Alexandria City,VA,22314,Washington,38.798612,-77.067312,USMS IGA,Federal
ALHAMCA,Alhambra City Jail,211 S. First St.,Alhambra,Los Angeles,CA,91801,Los Angeles,34.09197,-118.12666,USMS IGA,Federal
ALLEGNY,Allegany County Jail,4884 State Route 19,Belmont,Allegany,NY,14813,Buffalo,42.21245,-78.01715,IGSA,Non-Dedicated
ALLEGPA,Allegheny Co. Jail,950 Second Avenue,Pittsburgh,Allegheny,PA,15219,Philadelphia,40.434582,-79.993693,USMS IGA,Federal
ALLENIN,Allen County Jail,417 S. Calhoun,Ft. Wayne,Allen,IN,46802,Chicago,41.083287,-85.139909,USMS IGA,Federal
ALMHOLD,Alamosa Holdroom,1921 State Street,Alamosa,Alamosa,CO,81101,Denver,37.487897,-105.859789,Hold,Hold/Staging
AMTHOLD,Amarillo Hold Room,8601 E. Amarillo Blvd,Amarillo,Potter,TX,79108,Dallas,35.222536,-101.748848,Hold,Hold/Staging
ANCHOAK,Anchorage Jail,1400 E. 4th Ave,Anchorage,Anchorage,AK,99501,Seattle,61.21838,-149.857649,USMS IGA,Federal
ANCHOLD,Anchorage Sub-Office Hold Room,,Anchorage,Anchorage,AK,,Seattle,61.212362,-149.872299,Hold,Hold/Staging
ANDERSC,Anderson County Det Center,1009 David Lee Coffee Pl Rd,Anderson,Anderson,SC,29625,Atlanta,34.533618,-82.683172,Other,Other/Unknown
ANDRWTX,Andrews Sherrif's Office Co Jail,201 N. Main,Andrews,Andrews,TX,79714,El Paso,32.320133,-102.547641,Other,Other/Unknown
ANJUVMN,Anoka Co. Juvenile Center,7555 4th Avenue,Lino Lakes,Anoka,MN,55014,St. Paul,45.181044,-93.122414,Juvenile,Family/Youth
ANSGHTX,Anson General Hospital,101 Avenue J,Anson,Jones,TX,79501,Dallas,32.76788,-99.895188,Hospital,Medical
ANWHMMN,Abbott Northwestern Hosp,800 E 28th Street,Minneapolis,Hennepin,MN,55407,St. Paul,44.954175,-93.261572,Hospital,Medical
APACHAZ,Apache Co. Jail,370 South Washington St,St Johns,Apache,AZ,85936,Phoenix,34.50161,-109.364488,USMS IGA,Federal
APIBHCA,Alvarado Parkway Institute,7050 Parkway Dr,La Mesa,San Diego,CA,91942,San Diego,32.774357,-117.044089,Hospital,Medical
APPSCLA,Allen Parish Public Safety Complex,7340 Highway 26 West,Oberlin,Allen,LA,70655,New Orleans,30.620368,-92.756652,IGSA,Non-Dedicated
ARAPACO,Arapahoe County Jail,3686 South Court Place,Littleton,Arapahoe,CO,80120,Denver,39.614347,-105.012747,IGSA,Non-Dedicated
ARLCOVA,Arlington Co Jail,1435 North Courthouse Road,Arlington,Arlington,VA,22201,Washington,38.89054,-77.08335,USMS IGA,Federal
AROOSME,Aroostook County Jail,15 Broadway,Houlton,Aroostook,ME,04730,Boston,46.124557,-67.838214,USMS IGA,Federal
ARRMCCA,Arrowhead Regional Med Center,400 N. Pepper Avenue,Colton,San Bernardino,CA,92324,Los Angeles,34.076434,-117.352826,Hospital,Medical
ARTESNM,Artesia City Jail,702 West Chisum,Artesia,Eddy,NM,88210,El Paso,32.844515,-104.405011,Other,Other/Unknown
ARTSINM,Artesia Law Enforcement Center,1793 N 13Th St,Artesia ,Eddy,NM,88210,El Paso,32.859639,-104.413059,Unknown,Other/Unknown
ASHECNC,Ashe County Jail,140 Government Circle,Jefferson,Ashe,NC,28640,Atlanta,36.418811,-81.460321,Unknown,Other/Unknown
ASHRSFL,Atlantic Shores Hospital,4545 North Federal Highway,Fort Lauderdale,Broward,FL,33308,Miami,26.122524,-80.137358,Hospital,Medical
ASWHRTX,Ascension Seton Williams Hosp,201 Seton Parkway,Round Rock,Williamson,TX,78665,San Antonio,30.56707,-97.651251,Hospital,Medical
ATLANGA,Atlanta Pretrial Detn Ctr,254 Peachtree Street Southwest,Atlanta,Fulton,GA,30303,Atlanta,33.747313,-84.395391,USMS IGA,Federal
ATLHOLD,Atlanta Dist. Hold Rm,"77 Forsyth St., SW.",Atlanta,Fulton,GA,30303,Atlanta,33.753164,-84.393159,Hold,Hold/Staging
ATTHOLD,"Athens, TX Hold Room",109 W Corsicana Street,Athens,Henderson,TX,75751,Dallas,32.204448,-95.853981,Hold,Hold/Staging
AURORCO,Aurora City Jail,1500 East Alameda Drive,Aurora,Arapahoe,CO,80017,Denver,39.709542,-104.789661,IGSA,Non-Dedicated
AUSHOLD,Austin DRO Hold Room,300 East 8th Street,Austin,Travis,TX,78701,San Antonio,30.269638,-97.738978,Hold,Hold/Staging
AVPARLA,Avoyelles Parish Prison,675 Government Street,Marksville,Avoyelles,LA,71351,New Orleans,31.115793,-92.066955,IGSA,Non-Dedicated
AZDCTUC,AZ Dpt Corrections Tucson,10000 South Wilmot,Tucson,Pima,AZ,85734,Phoenix,32.066062,-110.858774,IGSA,Non-Dedicated
AZSPFLO,Arizona State Prison Comp,1305 E Butte Ave,Florence,Pinal,AZ,85132,Phoenix,33.028599,-111.373046,Unknown,Other/Unknown
AZSPPER,Perryville State Prison,2105 North Citrus Rd,Goodyear,Maricopa,AZ,85395,Phoenix,33.463292,-112.444222,IGSA,Non-Dedicated
AZSVCPC,Arizona Service Prison Complex,2500 E Van Buren St,Phoenix,Maricopa,AZ,85008,Phoenix,33.452963,-112.025979,Unknown,Other/Unknown
BAILECA,George Bailey Detent Faci,446 Alta Rd,San Diego,San Diego,CA,92158,San Diego,32.590244,-116.921241,IGSA,Non-Dedicated
BAKERFL,Baker County Sheriff Dept.,1 Sheriff Office Drive,Macclenny,Baker,FL,32063,Miami,30.29596,-82.12172,IGSA,Non-Dedicated
BALDWAL,Baldwin County Cor. Center,200 Hand Ave.,Bay Minette,Baldwin,AL,36507,New Orleans,30.88454,-87.774769,IGSA,Non-Dedicated
BALHOLD,Bal D D & P,1530 Caton Center Drive,Baltimore,Baltimore,MD,21227,Baltimore,39.255423,-76.680689,Hold,Hold/Staging
BANHOAZ,Banner University Medical Phoenix,1111 E McDowell Rd,Phoenix,Maricopa,AZ,85006,Phoenix,33.464564,-112.057366,Hospital,Medical
BANNOID,Bannock County Jail,5800 South 5th Ave,Pocatello,Bannock,ID,83204,Salt Lake City,42.838953,-112.409548,USMS IGA,Federal
BARNSMA,Barnstable County,"Route 6 Courthouse Complex, Box 397",Barnstable,Barnstable,MA,02630,Boston,41.69936,-70.30434,IGSA,Non-Dedicated
BARRECA,Barrett Honor Camp,21077 Lyons Valley Road,Alpine,San Diego,CA,91901,San Diego,32.73011,-116.69462,Juvenile,Family/Youth
BARTOGA,Bartow Co Jail,104 Zena Dr,Cartersville,Bartow,GA,30121,Atlanta,34.191178,-84.77741,Unknown,Other/Unknown
BASILLA,Basile Detention Center,3843 Stagg Avenue,Basile,Evangeline,LA,70515,New Orleans,30.486577,-92.583366,DIGSA,Dedicated
BAYAMPR,Bayamon Hospital,100 Laurel Avenue,Bayamon,Bayamon,PR,00956,Miami,18.36813,-66.1545,Hospital,Medical
BAYCOFL,Bay County,5700 Star Lane,Panama City,Bay,FL,32404,Miami,30.227229,-85.561969,Unknown,Other/Unknown
BBCHPMI,Bronson Battle Creek Hosp,300 North Ave.,Battle Creek,Calhoun,MI,49017,Detroit,42.331116,-85.177847,Hospital,Medical
BCORCPA,Berks County Residential Center,1040 Berks Road,Leesport,Berks,PA,19533,Philadelphia,40.37934,-76.016112,DIGSA,Dedicated
BEAVRPA,Beaver County Jail,6000 Woodlawn Boulevard,Aliquippa,Beaver,PA,15001,Philadelphia,40.629013,-80.239052,USMS IGA,Federal
BEDCITX,Bedford City Jail,2121 L Don Dodson Drive,Bedford,Tarrant,TX,76021,Dallas,32.84109,-97.133092,IGSA,Non-Dedicated
BEDFOOH,Bedford Heights City,5661 Perkins Road,Bedford Heights,Cuyahoga,OH,44146,Detroit,41.408959,-81.496926,IGSA,Non-Dedicated
BEDFOPA,Bedford County Jail,204 Thomas Street,Bedford,Bedford,PA,15522,Philadelphia,40.008089,-78.504786,IGSA,Non-Dedicated
BEFAMPA,Berks County Family Shelter,1040 Berks Road,Leesport,Berks,PA,19533,Philadelphia,40.379575,-76.019543,Family,Family/Youth
BEHOSNY,"Bellevue Hospital, Manhat",462 1st Avenue,New York,New York,NY,10016,New York,40.739556,-73.976083,Hospital,Medical
BEJUVPA,Berks Co. Juvenile,1261 County Welfare Road,Leesport,Berks,PA,19533,Philadelphia,40.382666,-76.017389,Juvenile,Family/Youth
BELCOTX,Bell County Jail,111 W. Central,Belton,Bell,TX,76513,Houston,31.057053,-97.463733,IGSA,Non-Dedicated
BELMOOH,Belmont County Jail,68137 Hammond Road,St Clairsville,Belmont,OH,43950,Detroit,40.075781,-80.966014,Other,Other/Unknown
BENTOWA,Benton County,7320 W. Quinault,Kennewick,Benton,WA,99336,Seattle,46.22145,-119.220502,IGSA,Non-Dedicated
BERGENJ,Bergen County Jail,160 South River Street,Hackensack,Bergen,NJ,07601,Newark,40.873873,-74.039042,USMS IGA,Federal
BERKSPA,"Berks County Jail, PA",1287 County Welfare Road,Leesport,Berks,PA,19533,Philadelphia,40.38278,-76.017484,USMS IGA,Federal
BERNANM,Bernalillo County Det Ctr,415 Roma N.W.,Albuquerque,Bernalillo,NM,87102,El Paso,35.089343,-106.651437,DIGSA,Dedicated
BESECPA,Berks County Secured Juvenile,1261 County Welfare Road,Leesport,Berks,PA,19533,Philadelphia,40.382683,-76.017367,Juvenile,Family/Youth
BFGHITX,"Byrd's Foster Group Home, Inc",5708 Hardy St,Houston,Harris,TX,77009,Houston,29.811312,-95.35255,Juvenile,Family/Youth
BFLHPNY,Buffalo General Hospital,100 High Street,Buffalo,Erie,NY,14203,Buffalo,42.900476,-78.865104,Medical,Medical
BHCALCA,Alhambra BHC Hospital,4619 N Rosemead Blvd.,Rosemead,Los Angeles,CA,91770,Los Angeles,34.077359,-118.073047,Hospital,Medical
BHFLDMI,Bronson Hospital Fieldstone Center,165 N. Washington Avenue,Battle Creek,Calhoun,MI,49037,Detroit,42.329924,-85.19158,Hospital,Medical
BHMHOLD,Birmingham Hold Room,1833 29th Ave S,Homewood,Jefferson,AL,35209,New Orleans,33.479539,-86.79116,Hold,Hold/Staging
BIDHPMA,Beth Israel Deaconess Hosp,330 Brookline Avenue,Boston,Suffolk,MA,02215,Boston,42.339818,-71.104465,Hospital,Medical
BIGHOMT,"Big Horn County Jail, MT",County Courthouse,Hardin,Big Horn,MT,59034,Salt Lake City,45.732727,-107.608745,IGSA,Non-Dedicated
BIGHOWY,"Big Horn County Jail, WY",415 Murphy St,Basin,Big Horn,WY,82410,Denver,44.382788,-108.040123,IGSA,Non-Dedicated
BIINCCO,"BI Incororated, GEO Group Company",3130 North Oakland Street,Aurora,Adams,CO,80010,Denver,39.76089,-104.849106,Unknown,Other/Unknown
BILHOLD,Billings Hold Room,2900 4th Ave North,Billings,Yellowstone,MT,59101,Salt Lake City,45.783884,-108.509563,Hold,Hold/Staging
BIMDCAZ,Banner Ironwood Med Ctr,37000 N Gantzel Rd,Queen Creek,Pinal,AZ,85140,Phoenix,33.214606,-111.565624,Hospital,Medical
BKLHOLD,Bakerfield Hold,800 Truxtun,Bakersfield,Kern,CA,93301,San Francisco,35.37372,-119.01121,Hold,Hold/Staging
BLBNATX,Bluebonnet Det Fclty,400 2nd Street,Anson,Jones,TX,79501,Dallas,32.778038,-99.909668,IGSA,Non-Dedicated
BLGHOLD,Bowling Green Hold Room,11093 S W Lewis Memorial Dr,Bowling Green,Caroline,VA,22427,Washington,38.049579,-77.346647,Hold,Hold/Staging
BLHHOLD,Bellingham BPS ERO Holdroom,1431 Sunset Ave,Ferndale,Whatcom,WA,98248,Seattle,48.822486,-122.561179,Hold,Hold/Staging
BLKREOK,Blackwell Regional Hospital,710 South 13Th Street,Blackwell,Kay,OK,74631,Dallas,36.79791,-97.30005,Hospital,Medical
BLOUNTN,Blount County Justice Ctr,940 Lamar Alexander Parkway,Maryville,Blount,TN,37801,New Orleans,35.749512,-83.990676,IGSA,Non-Dedicated
BMCSATX,Baptist Medical Center,111 Dallas St,San Antonio,Bexar,TX,78205,San Antonio,29.433305,-98.492443,Hospital,Medical
BNMCTAZ,Banner Medical Ctr Tucson,1625 N Campbell Ave,Tucson,Pima,AZ,85719,Phoenix,32.241991,-110.947171,Hospital,Medical
BOEHOLD,Elp Boeing Dr Holdroom,6451 Boeing Drive,El Paso,El Paso,TX,79925,El Paso,31.791837,-106.40256,Hold,Hold/Staging
BOIHOLD,Boise Hold Room,1185 S. Vinnell Way,Boise,Ada,ID,83709,Salt Lake City,43.592766,-116.286069,Hold,Hold/Staging
BONNEID,Bonneville Co. Jail,605 North Capital,Idaho Falls,Bonneville,ID,83402,Salt Lake City,43.494988,-112.040574,IGSA,Non-Dedicated
BOONEKY,Boone County Jail,3020 Conrad Lane,Burlington,Boone,KY,41005,Chicago,39.037326,-84.723667,USMS IGA,Federal
BOPALM,Allenwood (Med) FCI,2 Us-15,White Deer,Union,PA,17887,Philadelphia,41.127767,-76.921971,BOP,Federal
BOPATL,Atlanta U.S. Pen.,601 McDonough Blvd SE,Atlanta,Dekalb,GA,30315,Atlanta,33.712316,-84.368033,Unknown,Other/Unknown
BOPBER,FCI Berlin,1 Success Loop Road,Berlin,Coos,NH,03570,Boston,44.520926,-71.137769,BOP,Federal
BOPBRO,Brooklyn MDC,100 29th Street,Brooklyn,Kings,NY,11232,New York,40.659787,-74.002958,BOP,Federal
BOPBUT,Butner Fed.Corr.Inst.,3000 Old 75 Hwy,Butner,Granville,NC,27509,Atlanta,36.187179,-78.740535,BOP,Federal
BOPCAA,USP Canaan,3057 Easton Turnpike,Waymart,Wayne,PA,18472,Philadelphia,41.564966,-75.420385,BOP,Federal
BOPCNV,Nashville Comm. Corr.,701 Broadway Street,Nashville,Davidson,TN,37203,New Orleans,36.226218,-86.626766,BOP,Federal
BOPCUM,Cumberland FCI,14601 Burbridge Road SE,Cumberland,Allegany,MD,21502,Baltimore,39.597282,-78.754297,BOP,Federal
BOPDAL,Dalby Correctional Institute,805 North Avenue F,Post,Garza,TX,79356,Dallas,33.200528,-101.37167,BOP,Federal
BOPDEV,Devens FMC,42 Patton Road,Ayer,Middlesex,MA,01432,Boston,42.529248,-71.613805,BOP/Medical,Federal
BOPFAI,Fairton FCI,655 Fairton Millville Rd,Fairton,Cumberland,NJ,08320,Newark,39.389931,-75.156863,BOP,Federal
BOPGIL,FCI Gilmer,201 Fci Lane,Glenville,Gilmer,WV,26351,Philadelphia,38.915634,-80.784546,BOP,Federal
BOPGUA,Guaynabo MDC (San Juan),Hwy 28 Intsect of Road 165,San Juan,Guaynabo,PR,00939,Miami,18.423156,-66.112209,BOP,Federal
BOPHON,Honolulu Federal Detention Center,351 Elliott St.,Honolulu,Honolulu,HI,96819,San Francisco,21.3335,-157.928869,BOP,Federal
BOPLEX,Lexinton Fed.Med Center,3301 Leestown Road,Lexington,Fayette,KY,40511,Chicago,38.104157,-84.560091,BOP,Federal
BOPLOF,Lompoc FCI,3600 Guard Road,Lompoc,Santa Barbara,CA,93436,Los Angeles,34.676872,-120.499816,BOP,Federal
BOPLOM,Lompoc USP,3901 Klein Blvd.,Lompoc,Santa Barbara,CA,93436,Los Angeles,34.679288,-120.505236,BOP,Federal
BOPLOS,Los Angeles Met.Det.Ctr.,300 N. Los Angeles St.,Los Angeles,Los Angeles,CA,90012,Los Angeles,34.053536,-118.238159,BOP,Federal
BOPLTL,"La Tuna Federal Sattelite, Low",8500 Doniphan Road,Anthony,El Paso,TX,79821,El Paso,31.868228,-106.369629,BOP,Federal
BOPLVN,Leavenworth USP,1300 Metropolitan Ave.,Leavenworth,Leavenworth,KS,66048,Chicago,39.330385,-94.936386,Unknown,Other/Unknown
BOPMAR,Marion USP,Rural Rt. 5 Little Grassy Road,Marion,Williamson,IL,62959,Chicago,37.663196,-88.98415,BOP,Federal
BOPMCR,Mccreary USP,330 Federal Way,Pine Knot,Mccreary,KY,42635,Chicago,36.688211,-84.388482,BOP,Federal
BOPMEM,Memphis Fed.Corr.Inst.,1101 John A Denie Road,Memphis,Shelby,TN,38134,New Orleans,35.15566,-89.867087,BOP,Federal
BOPMIA,Miami FCI (Former MCC),1350 NW 41 Street,Miami,Miami-Dade,FL,33178,Miami,25.810125,-80.311667,BOP,Federal
BOPMIM,Miami Fed.Det.Center,33 NE 4th St,Miami,Miami-Dade,FL,33132,Miami,25.778491,-80.193199,BOP,Federal
BOPMRG,Morgantown Fed.Corr.Inst.,446 Greenbag Road,Morgantown,Monongalia,WV,26501,Philadelphia,39.605619,-79.950782,Other,Other/Unknown
BOPMVC,Moshannon Valley Correctional,555 Geo Drive,Philipsburg,Clearfield,PA,16866,Philadelphia,40.920042,-78.240515,DIGSA,Dedicated
BOPNEO,Northeast Ohio Correctional Center,2240 Hubbard Rd,Youngstown,Mahoning,OH,44505,Detroit,41.12896,-80.62683,Unknown,Other/Unknown
BOPOAD,Oakdale Fed.Det.Center,2105 E. Whatley Rd.,Oakdale,Allen,LA,71463,New Orleans,30.820701,-92.640691,BOP,Federal
BOPPET,Petersburg Fed.Corr.Inst.,1060 River Rd,Hopewell,Hopewell City,VA,23860,Washington,37.29826,-77.339699,Unknown,Other/Unknown
BOPPHL,FDC Philadelphia,700 Arch Street,Philadelphia,Philadelphia,PA,19106,Philadelphia,39.952909,-75.151925,BOP,Federal
BOPPHX,Phoenix Fed.Corr.Inst.,37910 N 45th Ave Dept 1700,Phoenix,Maricopa,AZ,85027,Phoenix,33.832026,-112.168389,BOP,Federal
BOPPOL,Pollock USP,"1000 Air Base Road, Po Box 1000",Pollock,Grant,LA,71467,New Orleans,31.462992,-92.440056,BOP,Federal
BOPRAE,"McRae Correctional Facility, CCA",1000 Jim Hammock Dr.,Mcrae,Telfair,GA,31055,Atlanta,32.051673,-82.874059,BOP,Federal
BOPRBK,Ray Brook Fed.Corr.Inst.,P.O.Box 300,Ray Brook,Essex,NY,12977,Buffalo,44.290535,-74.092607,BOP,Federal
BOPRCH,Rochester Fed.Med.Center,2110 E Center St,Rochester,Olmsted,MN,55904,St. Paul,44.023339,-92.439526,BOP,Federal
BOPSDC,San Diego MCC,Metropolitan Correctional Center,San Diego,San Diego,CA,92101,San Diego,32.713924,-117.166037,BOP,Federal
BOPSET,Seatac Fed.Det.Center,2425 S.200th Street,Seatac,King,WA,98198,Seattle,47.422017,-122.301633,BOP,Federal
BOPSHE,Sheridan Fed.Corr.Inst.,27072 Southwest Ballston Road,Sheridan,Yamhill,OR,97378,Seattle,45.084062,-123.381636,BOP,Federal
BOPSPG,Springfield Fed.Med.Cntr,1900 W. Sunshine,Springfield,Greene,MO,65808,Chicago,37.177542,-93.323273,BOP,Federal
BOPTCN,Tucson Fed.Corr.Inst.,8901 South Wilmot Road,Tucson,Pima,AZ,85706,Phoenix,32.189687,-110.857821,BOP,Federal
BOPTCP,US Penitentiary Tucson,9300 South Wilmot Road,Tucson,Pima,AZ,85706,Phoenix,32.08038,-110.858058,BOP,Federal
BOPTHA,Terre Haute USP,Highway 63 South,Terre Haute,Vigo,IN,47808,Chicago,39.416285,-87.450698,BOP,Federal
BOPTRV,Three Rivers FCI,Tx-72,Three Rivers,Live Oak,TX,78071,Houston,28.481633,-98.15741,BOP,Federal
BOPVIM,FCI Victorville,13777 Air Base Rd,Victorville,San Bernardino,CA,92392,Los Angeles,34.572116,-117.38012,BOP,Federal
BOSHOLD,Boston Holdroom,10 New England Executive Park,Burlington,Middlesex,MA,01803,Boston,42.482884,-71.208937,Hold,Hold/Staging
BOSSRLA,Bossier Parish Cor. Center,2984 Old Plain Dealing Highway,Plain Dealing,Bossier,LA,71064,New Orleans,32.842674,-93.757324,USMS IGA,Federal
BOTTIND,Bottineau Co. ND Jail,314 West Fifth St.,Bottineau,Bottineau,ND,58318,St. Paul,48.828305,-100.449892,IGSA,Non-Dedicated
BOURBKY,Bourbon Co Det Center,101 Legion Rd ,Paris,Bourbon,KY,40361,Chicago,38.223999,-84.246082,Unknown,Other/Unknown
BOWCOTX,Bowie County Jail,100 N. State Line,Texarkana,Bowie,TX,75501,Dallas,33.421222,-94.042983,IGSA,Non-Dedicated
BPC,Boston SPC,476-498 Hanover St Exd,Boston,Suffolk,MA,02109,Boston,42.365668,-71.05154,Other,Other/Unknown
BRADEFL,Bradenton Detention Center,515 11Th Street West,Bradenton,Manatee,FL,34205,Miami,27.49528,-82.572596,IGSA,Non-Dedicated
BRANCMI,"Branch Co, Coldwater, MI",31 Division Street,Coldwater,Branch,MI,49036,Detroit,41.939808,-85.00036,Unknown,Other/Unknown
BRCHOLD,Brush Holdroom,515 Industrial Park Road,Brush,Morgan,CO,80723,Denver,40.271628,-103.624774,Hold,Hold/Staging
BRDFDFL,Bradford County Jail,945-A N. Temple Ave.,Starke,Bradford,FL,32091,Miami,29.954188,-82.108705,IGSA,Non-Dedicated
BREMEIA,"Bremer Co Jail, Iowa",111 4th Street NE,Waverly,Bremer,IA,50677,St. Paul,42.726754,-92.465757,USMS IGA,Federal
BREVDFL,Brevard County Jail Complex,860 Camp Road,Cocoa,Brevard,FL,32927,Miami,28.4481,-80.781796,Unknown,Other/Unknown
BRGMCFL,Broward General Medical Center,1600 South Andrews Avenue,Ft. Lauderdale,Broward,FL,33316,Miami,26.10273,-80.141167,Hospital,Medical
BRINDMA,Bristol Cnty Ndartmouth,400 Faunce Corner Road,North Dartmouth,Bristol,MA,02747,Boston,41.665333,-70.995785,IGSA,Non-Dedicated
BRKHOLD,Berks Hold Room,1243 County Welfare Rd,Leesport,Berks,PA,19533,Philadelphia,40.383025,-76.013834,Hold,Hold/Staging
BRLHOAK,Bartlett Regional Hospital,3260 Hospital Dr,Juneau,City And Borough Of Juneau,AK,99801,Seattle,58.329692,-134.465088,Medical,Medical
BROADMT,Broadwater County Jail,519 Broadway,Townsend,Broadwater,MT,59644,Salt Lake City,46.321076,-111.515809,IGSA,Non-Dedicated
BROCRFL,Broward Correctional,20421 Sheridan St,Fort Lauderdale,Broward,FL,33332,Miami,26.121044,-80.142951,IGSA,Non-Dedicated
BROHOMI,Bronson Methodist Hospital,601 John St.,Kalamazoo,Kalamazoo,MI,49007,Detroit,42.285653,-85.5803,Hospital,Medical
BROJAFL,Broward County Jail,555 SE 1st Avenue,Ft.Lauderdale,Broward,FL,33301,Miami,26.115173,-80.142769,IGSA,Non-Dedicated
BROKSTX,Brooks County Jail (Contract),901 County Road 201,Falfurrias,Brooks,TX,78355,Harlingen,27.248275,-98.125847,USMS IGA,Federal
BROMMNY,Broome County Jail,897 Front Street,Binghampton,Broome,NY,13905,Buffalo,42.130839,-75.913339,IGSA,Non-Dedicated
BROWNSD,Brown County Jail,22 SE Court Street,Aberdeen,Brown,SD,57401,St. Paul,45.46485,-98.486351,IGSA,Non-Dedicated
BROWNWI,Brown County Jail,3030 Curry Lane,Green Bay,Brown,WI,54311,Chicago,44.522386,-87.930723,Unknown,Other/Unknown
BRWNSTX,Brownsville Police Dept.,600 E. Jackson Street,Brownsville,Cameron,TX,78520,Harlingen,25.907786,-97.498415,Other,Other/Unknown
BSAHOLD,Broadview Service Staging,1930 Beach Street,Broadview,Cook,IL,60155,Chicago,41.868522,-87.86562,Staging,Hold/Staging
BSCDRTX,BSCC Cedar Hill Unit,3711 Wright Avenue,Big Spring,Howard,TX,79720,El Paso,32.221277,-101.507227,BOP,Federal
BSCHOLD,Big Spring Hold Room,1701 Apron Drive,Big Spring,Howard,TX,79720,El Paso,32.225131,-101.514653,Hold,Hold/Staging
BSCORTX,BSCC Airpark Unit,3700 Wright Avenue,Big Spring,Howard,TX,79720,El Paso,32.222578,-101.506005,BOP,Federal
BSFLTTX,BSCC Flightline Unit,2001 Rickabaugh Dr,Big Spring,Howard,TX,79720,El Paso,32.227461,-101.527998,BOP,Federal
BSGDFTX,BSCC Giles Darby Facility,805 N. Avenue F,Post,Garza,TX,79356,Dallas,33.200528,-101.37167,BOP,Federal
BSNTRTX,BSCC Interstate Unit,1801 W. I-20,Big Spring,Howard,TX,79720,El Paso,32.261847,-101.497328,BOP,Federal
BSQUETX,Bosque County Sheriff's Dept.,305 W Morgan Street P.O. Boz 741,Meridian,Bosque,TX,76665,Houston,31.923208,-97.656689,Unknown,Other/Unknown
BSTAYTX,Baylor Scott White Md Ctr,3500 Gaston Avenue,Dallas,Dallas,TX,75246,Dallas,32.793252,-96.772152,Hospital,Medical
BSWRRTX,Baylor Scott White Med RR,300 University Blvd,Round Rock,Williamson,TX,78665,San Antonio,30.563444,-97.68462,Hospital,Medical
BTSHOMI,Corewell Hlth Gr Hosp-Butterworth,100 Michigan St NE,Grand Rapids,Kent,MI,49503,Detroit,42.969805,-85.66515,Medical,Medical
BTV,Buffalo SPC,4250 Federal Drive,Batavia,Genesee,NY,14020,Buffalo,43.020404,-78.202694,SPC,Dedicated
BUFHOLD,Buffalo Hold Room,130 Delaware Ave,Buffalo,Erie,NY,14202,Buffalo,42.888191,-78.878101,Hold,Hold/Staging
BURLEND,"Burleigh Co. Jail, ND",4000 Apple Creek Rd,Bismarck,Burleigh,ND,58502,St. Paul,46.794465,-100.69387,IGSA,Non-Dedicated
BURNETX,Burnet County Jail,900 County Ln,Burnet,Burnet,TX,78611,San Antonio,30.741522,-98.253048,USMS IGA,Federal
BUTLEKS,Butler County Jail,701 SE Stone Road,El Dorado,Butler,KS,67042,Chicago,37.81386,-96.830032,USMS IGA,Federal
BUTLEOH,Butler County Jail,705 Hanover Street,Hamilton,Butler,OH,45011,Detroit,39.38975,-84.553183,IGSA,Non-Dedicated
BWDGICA,Best Western Dragon Gate Inn,818 N. Hill St.,Los Angeles,Los Angeles,CA,90012,Los Angeles,34.063276,-118.239005,Hotel,Hotel
BWEPATX,Best Western Casa De Estrella,,El Paso,El Paso,TX,,El Paso,31.779792,-106.393202,Family Staging,Family/Youth
BWMARCA,Best Western Marina,800 Bay Marina Dr,National City,San Diego,CA,91950,San Diego,32.658932,-117.109966,Hotel,Hotel
BWRGMTX,Best West Rose Grdn I&S,,McAllen,Hidalgo,TX,,Harlingen,26.186949,-98.218777,Hotel,Hotel
BXCHSNY,Bronxcare Health System,1650 Grand Concourse ,Bronx,Bronx,NY,10457,New York,40.843468,-73.91108,Hospital,Medical
CACCJAM,SCC/Jamestown,5100 O'Brynes Ferry Road,Jamestown,Tuolumne,CA,95327,San Francisco,37.893474,-120.537864,Other,Other/Unknown
CACFBAK,Baker CCF,10 Lakeview Rd,Baker,San Bernardino,CA,92309,Los Angeles,35.278529,-116.055128,IGSA,Non-Dedicated
CACFDON,RJ Donovan Correc Fac,480 Alta Road,San Diego,San Diego,CA,92104,San Diego,32.58462,-116.933416,Other,Other/Unknown
CACFLEO,CCF/Leo Chesney,2800 Appricot St,Live Oak,Sutter,CA,95953,San Francisco,39.268461,-121.664381,Other,Other/Unknown
CACFMCF,Mcfarland CCF,245 Taylor Ave,Mcfarland,Kern,CA,93250,San Francisco,35.669737,-119.22781,IGSA,Non-Dedicated
CACFMES,Mesa Verde ICE Processing Center,425 Golden State Ave,Bakersfield,Kern,CA,93301,San Francisco,35.393033,-119.027482,CDF,Dedicated
CACHEUT,Cache Co. Jail,50 West 200 North,Logan,Cache,UT,84321,Salt Lake City,41.735155,-111.836168,USMS IGA,Federal
CACTYCA,California City Corections Center,22844 Virginia Boulevard,California City,Kern,CA,93505,San Francisco,35.15567,-117.861876,USMS IGA,Federal
CADCCAL,CDC Calipatria IHP,7018 Blair Road,Calipatria,Imperial,CA,92233,San Diego,33.166436,-115.484614,IGSA,Non-Dedicated
CADESVI,Desert View,10450 Rancho Road,Adelanto,San Bernardino,CA,92301,Los Angeles,34.558822,-117.437285,CDF,Dedicated
CAIRONW,Ironwood State Prison,19005 Wiley's Well Road,Blythe,Riverside,CA,92225,Los Angeles,33.606632,-114.901649,Unknown,Other/Unknown
CAJUVMN,Carver Co. Juvy Detention,600 East Fourth St.,Chaska,Carver,MN,55318,St. Paul,44.789279,-93.593311,Juvenile,Family/Youth
CALDWMO,Caldwell County Jail,280 West Main Street,Kingston,Caldwell,MO,64650,Chicago,39.642596,-94.046895,IGSA,Non-Dedicated
CALHOMI,"Calhoun Co., Battle Cr,MI",185 East Michigan Avenue,Battle Creek,Calhoun,MI,49014,Detroit,42.316674,-85.175892,IGSA,Non-Dedicated
CAMBRPA,"Cambria County Jail, PA",425 Manor Drive,Ebensburg,Cambria,PA,15931,Philadelphia,40.484397,-78.701232,USMS IGA,Federal
CAMCOWY,Campbell County Jail,600 W Boxelder Road,Gillette,Campbell,WY,82718,Denver,44.277316,-105.509858,IGSA,Non-Dedicated
CAMEDAZ,Central Arizona Medical,450 Adamsville,Florence,Pinal,AZ,85132,Phoenix,33.017306,-111.42268,Hospital,Medical
CAMENCE,"Calif. Men Colony, East",Colony Dr,San Luis Obispo,San Luis Obispo,CA,93409,Los Angeles,35.3217,-120.696,Other,Other/Unknown
CAMENCW,"Calif. Men Colony, West",Colony Dr,San Luis Obispo,San Luis Obispo,CA,93409,Los Angeles,35.3217,-120.696,Other,Other/Unknown
CAMERTX,Cameron County Jail,954 E. Harrison,Brownsville,Cameron,TX,78520,Harlingen,25.904507,-97.490999,IGSA,Non-Dedicated
CARBOPA,Carbon County Correctionl,Route 93 & Broad Street,Nesquehoning,Carbon,PA,18240,Philadelphia,40.878735,-75.78483,IGSA,Non-Dedicated
CARBOWY,Carbon County Jail,1302 Daley St,Rawlins,Carbon,WY,82301,Denver,41.796028,-107.224224,IGSA,Non-Dedicated
CARDFVA,Caroline Detention Facility,11093 S.W. Lewis Memorial Drive,Bowling Green,Caroline,VA,22427,Washington,38.117272,-77.277832,DIGSA,Dedicated
CARJAMN,Carver County Jail,600 East Fourth St.,Chaska,Carver,MN,55318,St. Paul,44.787264,-93.592872,IGSA,Non-Dedicated
CARROMD,Carroll County Detention Center,100 North Court Street,Westminster,Carroll,MD,21157,Baltimore,39.572886,-76.986107,IGSA,Non-Dedicated
CASCAMT,"Cascade County Jail, MT",3800 Ulm North Frontage Road,Great Falls,Cascade,MT,59404,Salt Lake City,47.466362,-111.380434,USMS IGA,Federal
CASPCAL,Calipatria State Prison,7018 Blair Road,Calipatria,Imperial,CA,92233,San Diego,33.166436,-115.484614,Other,Other/Unknown
CASPSAC,Csp-Sacramento,100 Prison Road,Represa,Sacramento,CA,95671,San Francisco,38.69362,-121.152411,IGSA,Non-Dedicated
CASSCND,Cass County Jail,450 34th Street South,Fargo,Cass,ND,58107,St. Paul,46.869841,-96.83308,IGSA,Non-Dedicated
CASSCNE,Cass County Jail,336 Main Street,Plattsmouth,Cass,NE,68048,St. Paul,41.011084,-95.883345,USMS IGA,Federal
CASSJCA,Casa San Juan,3987 Georgia St,San Diego,San Diego,CA,92103,San Diego,32.749965,-117.144883,Juvenile,Family/Youth
CATAHLA,Catahoula Correctional Center,499 Old Columbia Road,Harrisonburg,Catahoula,LA,71430,New Orleans,31.860451,-91.962215,IGSA,Non-Dedicated
CATTANY,Cattaraugus County Jail,301 Court Street,Little Valley,Cattaraugus,NY,14755,Buffalo,42.251454,-78.800353,IGSA,Non-Dedicated
CAWVALL,West Valley,9500 Etiwanda Ave,Rancho Cucamonga,San Bernardino,CA,91739,Los Angeles,34.081316,-117.528854,Unknown,Other/Unknown
CAYUGNY,Cayuga County Jail,"7445 County House Rd, Po Box518",Auburn,Cayuga,NY,13021,Buffalo,42.979977,-76.54352,IGSA,Non-Dedicated
CBENDTX,Coastal Bend Det. Facility,4909 Fm (Farm To Market) 2826,Robstown,Nueces,TX,78380,Harlingen,27.736829,-97.754606,USMS IGA,Federal
CBPHOLD,Buffalo Usbp Hold Room,"726 Exchange Street, Suite 400",Buffalo,Erie,NY,14210,Buffalo,42.875338,-78.849655,USBP,Federal
CBRRSNC,Cabarrus County Jail,30 Corban Avenue SE,Concord,Cabarrus,NC,28025,Atlanta,35.409321,-80.578035,IGSA,Non-Dedicated
CCADCAZ,CCA Cent.AZ.Det.Ctr.,1155 North Pinal Parkway,Florence,Pinal,AZ,85132,Phoenix,33.064366,-111.378808,USMS IGA,Federal
CCAFLAZ,"CCA, Florence Correctional Center",1100 Bowling Road,Florence,Pinal,AZ,85132,Phoenix,33.043834,-111.371793,USMS IGA,Federal
CCAHUTX,T Don Hutto Residential Center,1001 Welch Street,Taylor,Williamson,TX,76574,San Antonio,30.564905,-97.419752,DIGSA,Dedicated
CCANOOH,CCA Northeast OH Corrects,2240 Hubbard Rd,Youngstown,Mahoning,OH,44505,Detroit,41.128858,-80.626784,CDF,Dedicated
CCASDCA,Otay Mesa Detention Center,7488 Calzada De La Fuente,San Diego,San Diego,CA,92154,San Diego,32.576525,-116.915478,CDF,Dedicated
CCCSSTX,Christus Spohn Hosp CC - South,5950 Saratoga Blvd,Corpus Christi,Nueces,TX,78414,Harlingen,27.684068,-97.37717,Hospital,Medical
CCHAUTX,Cross Creek Hospital,8402 Cross Park Dr,Austin,Travis,TX,78754,San Antonio,30.338203,-97.677288,Hospital,Medical
CCHHSIL,Cook County Hospital-JHS,1969 W Ogden Ave,Chicago,Cook,IL,60612,Chicago,41.872934,-87.673802,Hospital,Medical
CCHRTTX,Cedar Crest Hosp Treat,3500 I-35 Frontage Rd,Belton,Bell,TX,76513,Houston,31.021745,-97.475885,Hospital,Medical
CCRMCCA,Contra Costa Reg Med Ctr,2500 Alhambra Ave,Martinez,Contra Costa,CA,94553,San Francisco,38.006686,-122.132851,Medical,Medical
CCRMHMN,Centracare Rice Memorial Hosp,301 Becker Ave SW,Willmar,Kandiyohi,MN,56201,St. Paul,45.120098,-95.046244,Hospital,Medical
CEMEDFL,Cedars Medical Center,1400 NW 12th Ave,Miami,Miami-Dade,FL,33136,Miami,25.788419,-80.216343,Hospital,Medical
CENTRVA,Centra Health,1920 Atherholt Rd,Lynchburg,Lynchburg City,VA,24501,Washington,37.413683,-79.168704,Hospital,Medical
CENTRWV,Central Regional Jail,300 Days Drive,Sutton,Braxton,WV,26601,Philadelphia,38.696525,-80.658199,IGSA,Non-Dedicated
CFREDVA,Clarke Fred'k Winch.,141 Ft Collier Road,Winchester,Winchester City,VA,22603,Washington,39.198506,-78.146302,IGSA,Non-Dedicated
CGRMCAZ,Casa Grande Reg. Med. Center,1625 N Campbell Ave,Casa Grande,Pinal,AZ,85222,Phoenix,32.880542,-111.708726,Hospital,Medical
CHACONY,Chautauqua County Jail,15 E. Chautauqua Street,Mayville,Chautauqua,NY,14757,Buffalo,42.254869,-79.50413,IGSA,Non-Dedicated
CHAHOLD,Charlotte Amalie Holdroom,"5500, Veterans Dr, St Thomas 00801, U.S. Virgin Islands",St. Thomas,St. Thomas,VI,00801,Miami,18.3223,-64.9637,Hold,Hold/Staging
CHANRAZ,Chandler Reg Med Ctr,1955 W Frye Rd,Chandler,Maricopa,AZ,85224,Phoenix,33.297252,-111.874651,Hospital,Medical
CHARLSC,Charleston County Correct,3841 Leeds Avenue,North Charleston,Charleston,SC,29405,Atlanta,32.858631,-80.008795,USMS IGA,Federal
CHASEKS,Chase County Jail,301 South Walnut Street,Cottonwood Falls,Chase,KS,66845,Chicago,38.375417,-96.538985,IGSA,Non-Dedicated
CHATHGA,Chatham Co Jail,1050 Carl Griffen Drive,Savannah,Chatham,GA,31405,Atlanta,32.066971,-81.167923,IGSA,Non-Dedicated
CHAVENM,Chavez Det Crt,3701 S. Atkinson,Roswell,Chaves,NM,88203,El Paso,33.352159,-104.505543,IGSA,Non-Dedicated
CHELAWA,Chelan Co. Regional Jail,401 Washington St 2nd Floor,Wenatchee,Chelan,WA,98801,Seattle,47.422551,-120.315434,USMS IGA,Federal
CHEMUNY,Chemung County Jail,211 William Street,Elmira,Chemung,NY,14901,Buffalo,42.091465,-76.80107,IGSA,Non-Dedicated
CHENANY,Chenango County Jail,279 County Road,Norwich,Chenango,NY,13815,Buffalo,42.507266,-75.538678,Unknown,Other/Unknown
CHEROOK,Cherokee County Jail,213 West Delaware Street,Tahlequah,Cherokee,OK,74464,Dallas,35.913749,-94.972559,Other,Other/Unknown
CHFLDVA,Chesterfield Co. Jail,6900 Mimms Dr,Chesterfield,Chesterfield,VA,23832,Washington,37.37896,-77.507889,Unknown,Other/Unknown
CHIHMIA,Chi Health Mercy Council Bluffs,800 Mercy Dr,Council Bluffs,Pottawattamie,IA,51503,St. Paul,41.26955,-95.837753,Hospital,Medical
CHIHOLD,Chicago Hold Room,"Chicago O'Hare Airport, Terminal #5",Chicago,Cook,IL,60666,Chicago,41.974839,-87.890021,Hold,Hold/Staging
CHIPPMI,"Chippewa Co., SSM",325 Court Street,Sault Ste. Marie,Chippewa,MI,49783,Detroit,46.49749,-84.34616,IGSA,Non-Dedicated
CHISLTX,Chi St Luke's Health Mem,1201 W Frank Ave,Lufkin,Angelina,TX,75904,Houston,31.336323,-94.742122,Hospital,Medical
CHLHOLD,"Charleston, SC Hold Room",3950 Faber Place Dr,Charleston,Charleston,SC,29405,Atlanta,32.846752,-80.019771,Hold,Hold/Staging
CHMCINY,Courthouse USM Cntl Islip,100 Federal Plaza,Central Islip,Suffolk,NY,11722,New York,40.759299,-73.190649,Other,Other/Unknown
CHMHOLD,Champlain Hold Room,237 West Service Road,Champlain,Clinton,NY,12919,Buffalo,45.006527,-73.452829,Hold,Hold/Staging
CHPHOVA,Chippenham Hospital - Richmond,7101 Jahnke Rd E,Richmond,Richmond City,VA,23225,Washington,37.513281,-77.526054,Medical,Medical
CHRISKY,Christian County Jail,"410 West 7th Street,",Hopkinsville,Christian,KY,42240,Chicago,36.869194,-87.490823,USMS IGA,Federal
CHRISMO,Christian Co Sheriff Dept,110 West Elm,Ozark,Christian,MO,65721,Chicago,37.019869,-93.205556,IGSA,Non-Dedicated
CHRLTFL,Charlotte County Jail,26601 Airport Rd,Punta Gorda,Charlotte,FL,33982,Miami,26.917117,-82.043435,IGSA,Non-Dedicated
CHSPKVA,Chesapeake City Jail,400 Albemarle Dr,Chesapeake,Chesapeake City,VA,23322,Washington,36.717768,-76.251591,,Non-Dedicated
CHSRHTX,Christus Santa Rosa Hospital - Med,5101 N. O'Connor Blvd,Irving,Dallas,TX,75039,Dallas,32.869878,-96.942042,Hospital,Medical
CHYHOLD,Cheyenne Holdroom,308 W. 21st Street,Cheyenne,Laramie,WY,82001,Denver,41.1368,-104.8199,Hold,Hold/Staging
CIBOCNM,Cibola County Correctional Center,2000 Cibola Loop,Milan,Cibola,NM,87021,El Paso,35.179783,-107.907649,IGSA,Non-Dedicated
CIBOGNM,Cibola General Hospital,1016 E Roosevelt Ave,Grants,Cibola,NM,87020,El Paso,35.162496,-107.827011,Hospital,Medical
CIBOLNM,Cibola County Det Ctr,2000 Cibola Loop,Milan,Cibola,NM,87021,El Paso,35.179783,-107.907649,IGSA,Non-Dedicated
CINHOLD,Cincinnati Holdroom,9875 Redhill Drive,Cincinnati,Hamilton,OH,45242,Detroit,39.238322,-84.380325,Hold,Hold/Staging
CIPHOLD,Central Islip Hold Room,100 Federal Plaza,Central Islip,Suffolk,NY,11722,New York,40.759299,-73.190649,Hold,Hold/Staging
CISAETX,Comfort Inn Ste Elp Airp,,El Paso,El Paso,TX,,El Paso,31.795266,-106.402018,Hotel,Hotel
CISEPTX,Comfort Suites Casa Consuelo,,El Paso,El Paso,TX,,El Paso,31.795266,-106.402018,Family Staging,Family/Youth
CISPVLA,County Inn & Ste By Rad,,Pineville,Rapides,LA,,New Orleans,31.356065,-92.421798,Hotel,Hotel
CITRUFL,Citrus County Jail,2604 W. Woodland Ridge Dr.,Lecanto,Citrus,FL,34461,Miami,28.846057,-82.477527,IGSA,Non-Dedicated
CKHOSFL,Columbia Kendal Hospital,11750 S.W. Bird Rd.,Miami,Miami-Dade,FL,33175,Miami,25.730701,-80.3856,Hospital,Medical
CLARIPA,Clarion  County Corrections,309 T-580,Shippenville,Clarion,PA,16254,Philadelphia,41.237619,-79.423483,IGSA,Non-Dedicated
CLARKIN,Clark County Jail,501 East Court Avenue,Jeffersonville,Clark,IN,47130,Chicago,38.277738,-85.737754,USMS IGA,Federal
CLARKWA,Clark County Jail,707 W 13Th St,Vancouver,Clark,WA,98666,Seattle,45.631025,-122.678224,IGSA,Non-Dedicated
CLAYCIN,Clay County Justice Center,611 East Jackson Street,Brazil,Clay,IN,47834,Chicago,39.523834,-87.120099,USMS IGA,Federal
CLEHOLD,Cleveland Hold Room,"1240 E. 9th Street, Room 585",Cleveland,Cuyahoga,OH,44199,Detroit,41.504901,-81.691781,Hold,Hold/Staging
CLICONY,Clinton County Jail,25 McCarthy Drive,Plattsburgh,Clinton,NY,12901,Buffalo,44.719593,-73.468035,USMS IGA,Federal
CLINTIN,Clinton County Jail,301 E Walnut Street,Frankfort,Clinton,IN,46041,Chicago,40.279209,-86.508778,USMS IGA,Federal
CLINTPA,Clinton County Corr. Fac.,58 Pine Mountain Road,Mcelhattan,Clinton,PA,17748,Philadelphia,41.154871,-77.336887,USMS IGA,Federal
CLMHOLD,Columbus Holdroom,50 West Broad St,Columbus,Franklin,OH,43215,Detroit,39.962334,-83.00218,Hold,Hold/Staging
CLTHOLD,Charlotte Hold Room,601 E Trade St,Charlotte,Mecklenburg,NC,28202,Atlanta,35.222886,-80.837843,Hold,Hold/Staging
CMDHOLD,Batavia Command Center Holdroom,,Batavia,Genesee,NY,,Buffalo,42.998116,-78.187517,Hold,Hold/Staging
CMEDHPR,Centro Medico Hospital,Av Americo Miranda S/N,San Juan,San Juan,PR,00935,Miami,18.4105,-66.0605,Hospital,Medical
CMPJVNY,Compass House Shelter,370 Linwood Ave,Buffalo,Erie,NY,14209,Buffalo,42.912875,-78.867737,Juvenile,Family/Youth
CNGHOLD,Chattanooga Hold Room,3117 Dayton Blvd,Red Bank,Hamilton,TN,37415,New Orleans,35.106032,-85.297818,Hold,Hold/Staging
CNTGRIL,Centegra Hospital,3701 Doty St,Woodstock,Mchenry,IL,60098,Chicago,42.27608,-88.401396,Hospital,Medical
CNTRHWA,Central Washington Hospital,1201 South Miller Street,Wenatchee,Chelan,WA,98807,Seattle,47.407206,-120.321549,Medical,Medical
COAHOLD,"Columbia, SC Holdroom",1835 Assembly St,Columbia,Richland,SC,29201,Atlanta,34.009224,-81.038982,Hold,Hold/Staging
COBBJGA,Cobb County Jail,1825 County Services Parkway,Marietta,Cobb,GA,30060,Atlanta,33.908688,-84.58092,IGSA,Non-Dedicated
COCHIAZ,Cochise Co Jail Bisbee AZ,203 North Judd Drive,Bisbee,Cochise,AZ,85603,Phoenix,31.433252,-109.870822,IGSA,Non-Dedicated
COCONAZ,Coconino Co Detention Facility,952 E. Saw Mill Road,Flagstaff,Coconino,AZ,86001,Phoenix,35.188274,-111.640415,USMS IGA,Federal
CODCCSP,Colo Dept Of Corrections,East Hwy 50 And Evans Ave,Canon City,Fremont,CO,81212,Denver,38.440611,-105.157937,,Non-Dedicated
COLCASC,Columbia Care Center,7901 Farrow Road,Columbia,Richland,SC,29203,Atlanta,34.075744,-80.979724,Hospital,Medical
COLLIFL,Collier County Sheriff,3301 Tamiami Trail East,Naples,Collier,FL,34112,Miami,26.126273,-81.765724,IGSA,Non-Dedicated
COLOMNY,Colombia County Jail,85 Industrial Tract,Hudson,Columbia,NY,12543,Buffalo,42.249608,-73.756327,IGSA,Non-Dedicated
COLUMFL,Columbia County Jail,389 NW Quinten St,Lake City,Columbia,FL,32055,Miami,30.220628,-82.643575,Unknown,Other/Unknown
COLUMOR,Columbia County Jail,901 Port Avenue,Saint Helens,Columbia,OR,97051,Seattle,45.848657,-122.818863,USMS IGA,Federal
COLUMPA,Columbia County Jail,721 Iron St.,Bloomsburg,Columbia,PA,17815,Philadelphia,40.998163,-76.450519,USMS IGA,Federal
COMFTFL,Comfort Suites Hotel,3901 SW 117th Ave.,Miami,Miami-Dade,FL,33175,Miami,25.733182,-80.382618,Hotel,Hotel
CONCOCA,Contra Costa Co. Jail,1000 Ward Street,Martinez,Contra Costa,CA,94553,San Francisco,38.01833,-122.132897,USMS IGA,Federal
CONCOLA,Concordia Parish C C,26356 Hwy 15,Ferriday,Concordia,LA,71334,New Orleans,31.585628,-91.557231,IGSA,Non-Dedicated
CONEJCO,Conejos County Jail,14044 County Road G5,Antonito,Conejos,CO,81120,Denver,37.08625,-106.005302,IGSA,Non-Dedicated
CONHOTX,Connally Memorial Medical Center,499 10th St,Floresville,Wilson,TX,78114,San Antonio,29.158732,-98.174764,Hospital,Medical
CONVEWY,Converse County Jail,107 North 5th Street,Douglas,Converse,WY,82633,Denver,42.759711,-105.381135,IGSA,Non-Dedicated
CONWECA,Contra Costa Co Jail/West,5555 Giant Highway,Richmond,Contra Costa,CA,94806,San Francisco,37.994269,-122.352143,USMS IGA,Federal
COOCONH,Coos County Jail,168 County Farm Road,West Stewartstown,Coos,NH,03597,Boston,44.989606,-71.532215,USMS IGA,Federal
COOSCOR,Coos Co. Jail,Coos County Sheriff's Office,Coquille,Coos,OR,97423,Seattle,43.176795,-124.186364,IGSA,Non-Dedicated
COSTACA,Costa Mesa College Hosp,301 Victoria St.,Costa Mesa,Orange,CA,92627,Los Angeles,33.6521,-117.911956,Hospital,Medical
COWJVWA,Cowlitz Co. Juv. Det.,1725 1st Ave.,Longview,Cowlitz,WA,98632,Seattle,46.141403,-122.917798,Juvenile,Family/Youth
COXMEMO,Coxhealth Medical Center South,3801 South National Ave.,Springfield,Greene,MO,65807,Chicago,37.144768,-93.280358,Medical,Medical
CPBDCKY,Campbell Co Det Ctr,601 Central Avenue,Newport,Campbell,KY,41071,Chicago,39.089084,-84.496322,USMS IGA,Federal
CPPAPAZ,Crowne Plaza Phoenix Ap,4300 E Washington St,Phoenix,Maricopa,AZ,85034,Phoenix,33.448866,-111.988466,Hotel,Hotel
CRGHOLD,Craig Holdroom,466 Tucker Street,Craig,Moffat,CO,81625,Denver,40.513626,-107.544964,Hold,Hold/Staging
CRIHOLD,Cedar Rapids Hold Room,53 3rd Ave Bridge,Cedar Rapids,Linn,IA,52401,St. Paul,41.975295,-91.670085,Hold,Hold/Staging
CRMCFCA,Community Reg Med Center,2823 Fresno Street,Fresno,Fresno,CA,93721,San Francisco,36.742951,-119.78423,Hospital,Medical
CROWGMN,Crow Wing County Jail,313 Laurel St,Brainerd,Crow Wing,MN,56401,St. Paul,46.355872,-94.205913,IGSA,Non-Dedicated
CRPHOLD,Corpus Christi EOR Hold Room,,Corpus Christi,Nueces,TX,,Harlingen,27.800583,-97.396381,Hold,Hold/Staging
CRTOSCA,Cerritos  College Hosp,10802 College Place,Cerritos,Los Angeles,CA,90703,Los Angeles,33.88517,-118.102257,Hospital,Medical
CRYCCTX,Crystal City Corr. Center,5332 N Highway 83,Crystal City,Zavala,TX,78839,San Antonio,28.747173,-99.844263,USMS IGA,Federal
CSANOLA,Comfort Suites Alexandria,,Alexandria,Rapides,LA,,New Orleans,31.343826,-92.517489,Hotel,Hotel
CSCLQTX,La Quinta Wyndham Casa De Paz,,Pearsall,Frio,TX,,San Antonio,28.898261,-99.119186,Family Staging,Family/Youth
CSCNWWA,NW ICE Processing Ctr,1623 E. J Street,Tacoma,Pierce,WA,98421,Seattle,47.25021,-122.422663,CDF,Dedicated
CSDHOLD,Colo Springs Den HSI Hold,415 E Pikes Peak Ave,Colorado Springs,El Paso,CO,80903,Denver,38.83347,-104.81751,Hold,Hold/Staging
CSHEPTX,Chase Ste Hotel Elp,,El Paso,El Paso,TX,,El Paso,31.790525,-106.392763,Hotel,Hotel
CSLLFTX,Chi St Luke's H M Lufkin,1201 W Frank Ave,Lufkin,Angelina,TX,75904,Houston,31.336248,-94.740863,Hospital,Medical
CSPHOLD,Casper Holdroom,150 E. B Street,Casper,Natrona,WY,82601,Denver,42.852072,-106.324898,Hold,Hold/Staging
CSSCHVA,Centra Southside Comm Hosp,800 Oak St,Farmville,Prince Edward,VA,23901,Washington,37.302599,-78.404041,Hospital,Medical
CSYJVNY,Casey House Shelter,710 Cedar Ave,Buffalo,Niagara,NY,14301,Buffalo,43.097027,-79.053898,Juvenile,Family/Youth
CTLAFSL,Laffayette Sheriff's Lock,101 Lafayette Street,Hartford,Hartford,CT,06106,Boston,41.760622,-72.683486,Hold,Hold/Staging
CTYORCI,York Corr Inst,201 West Main Street,Niantic,New London,CT,06357,Boston,41.322975,-72.237209,IGSA,Non-Dedicated
CULBETX,Culberson County Sheriff's,301 La Caverna,Van Horn,Culberson,TX,79855,El Paso,31.043198,-104.831083,IGSA,Non-Dedicated
CULPEVA,Culpeper Co. Adult Det. Center,131 W. Cameron St.,Culpeper,Culpeper,VA,22701,Washington,38.474087,-77.996688,IGSA,Non-Dedicated
CUMBEME,Cumberland County Jail,50 County Way,Portland,Cumberland,ME,04102,Boston,43.650862,-70.28162,USMS IGA,Federal
CURRYNM,Curry County Det Fac,801 Mitchell Street,Clovis,Curry,NM,88101,El Paso,34.405859,-103.206547,IGSA,Non-Dedicated
CUSTEMT,Custer County Jail,1010 Main Street,Miles City,Custer,MT,59301,Salt Lake City,46.404961,-105.854114,IGSA,Non-Dedicated
CVANXCA,Central Valley Annex,254 Taylor Avenue ,Mcfarland,Kern,CA,93250,San Francisco,35.668096,-119.228991,Unknown,Other/Unknown
CVREGVA,Central VA Regional Jail,13021 James Madison Hwy,Orange,Orange County,VA,22960,Washington,38.222836,-78.123706,IGSA,Non-Dedicated
CWHCCMP,Commonwealth Healthcare Corp,1178 Hinemlu St,Saipan,Saipan,MP,,San Francisco,15.215104,145.72471,Hospital,Medical
DAKOTNE,Dakota County Jail,1601 Broadway,Dakota City,Dakota,NE,68731,St. Paul,42.41501,-96.418874,USMS IGA,Federal
DALCOTX,Dallas County Jail-Lew Sterrett,111 West Commerce Street,Dallas,Dallas,TX,75202,Dallas,32.776299,-96.815601,USMS IGA,Federal
DALHOLD,Dallas F.O. Hold,8101 N Stemmons Fwy,Dallas,Dallas,TX,75247,Dallas,32.823622,-96.872156,Hold,Hold/Staging
DAUPHPA,"Dauphin Cnty Jail, PA",501 Mall Road,Harrisburg,Dauphin,PA,17111,Philadelphia,40.253563,-76.833391,Other,Other/Unknown
DAVIDTN,Davidson Co. Sheriff Dept,448 2nd Avenue,Nashville,Davidson,TN,37210,New Orleans,36.186232,-86.785022,IGSA,Non-Dedicated
DAVISUT,Davis Co. Jail,800 West State Street,Farmington,Davis,UT,84025,Salt Lake City,40.980658,-111.904465,,Non-Dedicated
DAWSOMT,Dawson County Jail,207 West Bell,Glendive,Dawson,MT,59330,Salt Lake City,47.105157,-104.715447,IGSA,Non-Dedicated
DCDOCDC,DC Dept Of Corrections,1923 Vermont Avenue Northwest,Washington,District Of Columbia,DC,20001,Washington,38.91614,-77.025458,USMS IGA,Federal
DEAPDMI,Dearborn Police Dept.,16099 Michigan Ave,Dearborn,Wayne,MI,48126,Detroit,42.323147,-83.172592,IGSA,Non-Dedicated
DECCSMY,Delaware Correction Center,1181 Paddock Road,Smyrna,Kent,DE,19977,Philadelphia,39.332691,-75.598712,Unknown,Other/Unknown
DEKABGA,Dekalb County Jail,4425 Memorial Dr,Decatur,Dekalb,GA,30032,Atlanta,33.776318,-84.243643,IGSA,Non-Dedicated
DEKALAL,Dekalb County Detention Center,2801 Jordan Road,Fort Payne,Dekalb,AL,35968,New Orleans,34.428756,-85.760138,USMS IGA,Federal
DEKALGA,Dekalb Co Jail,4415 Memorial Dr,Decatur,Dekalb,GA,30032,Atlanta,33.747312,-84.311811,Other,Other/Unknown
DELAWPA,Delaware Co Jail,500 Chayney Road,Thornton,Delaware,PA,19373,Philadelphia,39.905218,-75.512939,USMS IGA,Federal
DELTACO,Delta County Jail,P.O. Box 172,Delta,Delta,CO,81416,Denver,38.743107,-108.063523,IGSA,Non-Dedicated
DENCICO,Denver Justice Center,1330 Cherokee Street,Denver,Denver,CO,80204,Denver,39.737396,-104.991544,IGSA,Non-Dedicated
DENHOLD,Denver Hold Room,4730 Paris St.,Denver,Denver,CO,80239,Denver,39.783607,-104.848777,Hold,Hold/Staging
DENICDF,Denver Contract Det. Fac.,3130 North Oakland Street,Aurora,Adams,CO,80010,Denver,39.766325,-104.864502,CDF,Dedicated
DENIICO,Denver CDF II,11901 E. 30th Ave,Aurora,Adams,CO,80010,Denver,39.739387,-104.8621,CDF,Dedicated
DENVECO,Denver County Jail,10500 East Smith Road,Denver,Denver,CO,80239,Denver,39.767429,-104.864252,USMS IGA,Federal
DEPCOGU,Department Of Corrections,3 Mashburn Lane,Mangilao,Guam,GU,96913,San Francisco,13.448146,144.785942,IGSA,Non-Dedicated
DEPYOGU,Department Of Youth Affairs,"169 San Isidro St., Bldg. C",Barrigada,Guam,GU,96921,San Francisco,13.382306,144.661975,Juvenile,Family/Youth
DETHOLD,"U.S. Immigration, Detroit",333 Mt. Elliot Ave,Detroit,Wayne,MI,48207,Detroit,42.408815,-83.037998,Hold,Hold/Staging
DHDFNJ,Delaney Hall Detention Facility,451 Doremus Avenue,Newark,Essex,NJ,07105,Newark,40.717437,-74.127789,IGSA,Non-Dedicated
DIIHBMD,Days Inn Inner Harbor Baltimore,100 Hopkins Place,Baltimore,Baltimore,MD,21201,Baltimore,39.287304,-76.618075,Hotel,Hotel
DISPTAZ,Drury Inn Stes Pho Tempe,,Tempe,Maricopa,AZ,,Phoenix,33.333636,-111.970302,Hotel,Hotel
DISSATX,Drury Inn & Stes SNA Ap,,San Antonio,Bexar,TX,,San Antonio,29.52116,-98.485233,Hotel,Hotel
DLAMOCA,Del Amo Psychiatric Hospital,23700 Camino Del Sol,Torrance,Los Angeles,CA,90505,Los Angeles,33.810303,-118.344168,Hospital,Medical
DLRHOLD,Del Rio DRO Hold Room,2401 Dodson Avenue,Del Rio,Val Verde,TX,78840,San Antonio,29.393471,-100.899841,Hold,Hold/Staging
DNHMCCO,Denver Health Medical Center,777 Bannock Street,Denver,Denver,CO,80204,Denver,39.727319,-104.991198,Hospital,Medical
DOCORNE,Douglas County Correction,710 South 17th St,Omaha,Douglas,NE,68102,St. Paul,41.25339,-95.938996,IGSA,Non-Dedicated
DODGEWI,"Dodge County Jail, Juneau",215 West Central Street,Juneau,Dodge,WI,53039,Chicago,43.407113,-88.706195,USMS IGA,Federal
DONAANM,Dona Ana County Detention Facility,1850 Copper Loop,Las Cruces,Dona Ana,NM,88005,El Paso,32.302904,-106.807471,IGSA,Non-Dedicated
DORCDSC,Dorchester Co Det Ctr,220 Hodge Rd,Summerville,Dorchester,SC,29483,Atlanta,33.057249,-80.221052,USMS IGA,Federal
DORCHMD,Dorchester Co Det Cntr,829 Fieldcrest Road,Cambridge,Dorchester,MD,21613,Baltimore,38.548291,-76.061404,IGSA,Non-Dedicated
DOUGLCO,Douglas County Detention Center,355 South Wilcox,Castle Rock,Douglas,CO,80104,Denver,39.372829,-104.860137,IGSA,Non-Dedicated
DOUGLOR,Douglas Co. Jail,1036 SE Douglas Ave # 210 #124,Roseburg,Douglas,OR,97470,Seattle,43.211979,-123.346009,IGSA,Non-Dedicated
DOUGLWI,Douglas Co. Wisconsin,1409 Hammond Avenue,Superior,Douglas,WI,54880,Chicago,46.721745,-92.097998,IGSA,Non-Dedicated
DRHCSTX,Dimmit Regional Hospital,704 Hospital Drive,Carrizo Springs,Dimmit,TX,78834,San Antonio,28.519325,-99.863335,Hospital,Medical
DRURYCO,Drury Inn,4380 Peoria St,Denver,Denver,CO,80239,Denver,39.776488,-104.84692,Hotel,Hotel
DSMCNTX,DSMC - Del Sol Medical Center,10301 Gateway Blvd W ,El Paso,El Paso,TX,79925,El Paso,31.756534,-106.349506,Hospital,Medical
DSMHOLD,Des Moines Hold Room,222 5th Ave,Des Moines,Polk,IA,50309,St. Paul,41.585489,-93.623253,Hold,Hold/Staging
DSRTVCA,Desert Valley Hospital,16850 Bear Valley Road,Victorville,San Bernardino,CA,92395,Los Angeles,34.47175,-117.297825,Hospital,Medical
DULHOLD,Duluth Hold Room,4431 Endeavor Drive,Duluth,St. Louis,MN,55811,St. Paul,46.834333,-92.1561,Hold,Hold/Staging
DUPAGIL,Dupage County Jail,501 North County Farm Road,Wheaton,Dupage,IL,60187,Chicago,41.871908,-88.145275,IGSA,Non-Dedicated
DURHOLD,Durango Holdroom,32 Sheppard Drive,Durango,La Plata,CO,81303,Denver,37.237142,-107.874147,Hold,Hold/Staging
DUTCHAK,Dutch Harbor City Jail,29 Safety Way,Unalaska,Aleutians West,AK,99685,Seattle,53.871305,-166.541178,IGSA,Non-Dedicated
DUVALFL,Duval/Jacksonville Jail,500 East Adams Street,Jacksonville,Duval,FL,32202,Miami,30.326018,-81.649954,IGSA,Non-Dedicated
DVCSDKY,Daviess County Detention Center,3337 Ky-144,Owensboro,Daviess,KY,42303,Chicago,37.787934,-87.070426,,Non-Dedicated
DVDHOLD,Dover Holdroom,1305 McD Drive,Dover,Kent,DE,19901,Philadelphia,39.154507,-75.487951,Hold,Hold/Staging
DVHSPNV,Desert View Hospital,360 S Lola Ln,Pahrump,Nye,NV,89048,Salt Lake City,36.21458,-116.024888,Hospital,Medical
EAGLECO,Eagle County Jail,885 Chambers Ave.,Eagle,Eagle,CO,81631,Denver,39.662719,-106.819803,IGSA,Non-Dedicated
EAZ,Eloy Federal Contract Fac,1705 East Hanna Rd.,Eloy,Pinal,AZ,85131,Phoenix,32.817677,-111.51927,DIGSA,Dedicated
ECC,El Centro SPC,1115 North Imperial Avenue,El Centro,Imperial,CA,92243,San Diego,32.802962,-115.569768,SPC,Dedicated
ECLECTX,Ector County L.E.C.,2500 South Highway 385,Odessa,Ector,TX,79764,El Paso,31.821076,-102.359508,Other,Other/Unknown
ECMCBNY,Erie County Medical Center,462 Grider Street,Buffalo,Erie,NY,14215,Buffalo,42.92631,-78.832166,Hospital,Medical
ECOLOWA,Econolodge Motel,13910 Pacific Highway S.,Tukwila,King,WA,98168,Seattle,47.478679,-122.284056,Hotel,Hotel
ECRMCCA,El Centro Regional Med Ctr,1415 Ross Ave,El Centro,Imperial,CA,92243,San Diego,32.780254,-115.568591,Hospital,Medical
ECTORTX,Ector County Correction Center,2500 South Highway 385,Odessa,Ector,TX,79761,El Paso,31.773866,-102.36659,IGSA,Non-Dedicated
EDCHOLD,Eden Hold Room,702 E Broadway St,Eden,Concho,TX,76837,Dallas,31.216752,-99.833807,Hold,Hold/Staging
EDDCONM,Eddy County Jail,201 North Main Street,Carlsbad,Eddy,NM,88220,El Paso,32.421607,-104.226482,IGSA,Non-Dedicated
EDENDTX,Eden Det Center,702 E Broadway St,Eden,Concho,TX,76837,Dallas,31.216752,-99.833807,BOP,Federal
EDNBGTX,Edinburg Police Dept.,1702 S. Closner Blvd.,Edinburg,Hidalgo,TX,78539,Harlingen,26.285612,-98.164573,Unknown,Other/Unknown
EDNDCTX,Eden Detention Ctr,702 E Broadway St,Eden,Concho,TX,76837,Dallas,31.21701,-99.833507,Unknown,Other/Unknown
EDNHOLD,Eden Det Ctr Hold Room,704 E Broadway,Eden,Concho,TX,76837,Dallas,31.216869,-99.833488,Hold,Hold/Staging
EFMHMFL,Ed Fraser Memorial Hospital,159 N 3rd St,Macclenny,Baker,FL,32063,Miami,30.286158,-82.118911,Hospital,Medical
EHDLGTX,East Hidalgo Detention Center,1300 E Hwy 107,La Villa,Hidalgo,TX,78562,Harlingen,26.303264,-97.932129,USMS IGA,Federal
EIRHONY,Erie Co Holding Center,40 Delaware Ave,Buffalo,Erie,NY,14202,Buffalo,42.88715,-78.878029,Hold,Hold/Staging
ELBERCO,Elbert County Jail,751 Ute Ave,Kiowa,Elbert,CO,80117,Denver,39.3423,-104.464061,IGSA,Non-Dedicated
ELGPDIL,Elgin Police Dept. Jail,151 Douglas Avenue,Elgin,Kane,IL,60120,Chicago,42.039683,-88.283887,IGSA,Non-Dedicated
ELKHAIN,Elkhart County Jail,26861 County Road 26,Elkhart,Elkhart,IN,46517,Chicago,41.624144,-85.978582,Other,Other/Unknown
ELMORID,Elmore County Jail,2255 E. 8th North,Mountain Home,Elmore,ID,83647,Salt Lake City,43.137034,-115.672984,USMS IGA,Federal
ELPASCO,El Paso County Jail (CO),2739 East Las Vegas,Colorado Springs,El Paso,CO,80906,Denver,38.788166,-104.77912,IGSA,Non-Dedicated
ELPCOTX,El Paso County Jail (TX),12501 Montana Ave,El Paso,El Paso,TX,79938,El Paso,31.81029,-106.253194,IGSA,Non-Dedicated
ELVDFTX,El Valle Detention Facility,1800 Industrial Drive,Raymondville,Willacy,TX,78580,Harlingen,26.480407,-97.767334,IGSA,Non-Dedicated
ELZICDF,Elizabeth Contract D.F.,625 Evans Street,Elizabeth,Union,NJ,07201,Newark,40.666157,-74.189694,CDF,Dedicated
EMBCRNC,Embassy Suites By Hilton,201 Harrison Oaks Boulevard,Cary,Wake,NC,27513,Atlanta,35.833094,-78.771746,Hotel,Hotel
EMBSATX,Embassy Ste Hltn SNA Ap,,San Antonio,Bexar,TX,,San Antonio,29.530539,-98.483693,Hotel,Hotel
EMBSYCO,Embassy Suites Hotel,4444 Havana St.,Denver,Denver,CO,80239,Denver,39.778331,-104.865647,Hotel,Hotel
EMESACA,East Mesa Detent Facility,446 Alta Rd,San Diego,San Diego,CA,92158,San Diego,32.590096,-116.922136,IGSA,Non-Dedicated
ENLMCCA,Enloe Medical Center,1531 Esplanade,Chico,Butte,CA,95926,San Francisco,39.743074,-121.850049,Hospital,Medical
EPBHSTX,El Paso Behavioral Health System,1900 Denver Ave,El Paso,El Paso,TX,79902,El Paso,31.780626,-106.476018,Hospital,Medical
EPC,El Paso SPC,8915 Montana Ave.,El Paso,El Paso,TX,79925,El Paso,31.796447,-106.369651,SPC,Dedicated
EPCDFTX,El Paso County Detention Facility,601 E Overland Ave,El Paso,El Paso,TX,79901,El Paso,31.758577,-106.483474,Unknown,Other/Unknown
EPCJUVI,El Paso SPC Juvenile,8915 Montana St.,El Paso,El Paso,TX,79925,El Paso,31.796447,-106.369651,Hold,Hold/Staging
EPLTATX,El Paso LTAC Hospital,"1221 N. Cotton, 3rd Floor",El Paso,El Paso,TX,79904,El Paso,31.783763,-106.474224,Hospital,Medical
EPSSFTX,El Paso Soft Sided Facility,12501 Gateway Blvd S,El Paso,El Paso,TX,79934,El Paso,31.883642,-106.440946,Staging,Hold/Staging
ERICONY,Erie County Holding Center,40 Delaware Ave,Buffalo,Erie,NY,14202,Buffalo,42.88715,-78.878029,Hold,Hold/Staging
ERICOPA,"Erie County Jail, PA",1618 Ash Street,Erie,Erie,PA,16503,Philadelphia,42.124775,-80.065897,USMS IGA,Federal
EROFCB,ERO El Paso Camp East Montana,6920 Digital Rd,El Paso,El Paso,TX,79936,El Paso,31.812729,-106.298333,CDF,Dedicated
ESAPAAZ,Extended Stay America Pho Ap,,Phoenix,Maricopa,AZ,,Phoenix,33.41353,-112.008015,Hotel,Hotel
ESHSATX,Embassy Ste Hltn NW I-10,,San Antonio,Bexar,TX,,San Antonio,29.508439,-98.548884,Hotel,Hotel
ESKHLIN,Eskenazi Health,720 Eskenazi Avenue,Indianapolis,Marion,IN,46202,Chicago,39.777393,-86.184605,Medical,Medical
ESSEXMA,"Essex Co. Jail, Middleton",20 Manning Ave,Middleton,Essex,MA,01949,Boston,42.597407,-70.986788,IGSA,Non-Dedicated
ESSEXNJ,Essex County Jail,354 Doremus Avenue,Newark,Essex,NJ,07105,Newark,40.730608,-74.135742,IGSA,Non-Dedicated
ESSEXNY,Essex County Jail,702 Stowersville Road,Lewis,Essex,NY,12950,Buffalo,44.282266,-73.539235,IGSA,Non-Dedicated
ETOWAAL,Etowah County Jail (AL),827 Forrest Avenue,Gadsden,Etowah,AL,35901,New Orleans,34.015737,-86.011933,USMS IGA,Federal
ETWHOLD,Etowah ERO Hold Room,827 Forrest Avenue,Gadsden,Etowah,AL,35901,New Orleans,34.016508,-86.012396,Hold,Hold/Staging
EUGHOLD,Eugene Holdroom,211 East 7th Avenue,Eugene,Lane,OR,97401,Seattle,44.052201,-123.089385,Hold,Hold/Staging
EULESTX,Euless City Jail,1102 W. Euless Blvd.,Euless,Tarrant,TX,76040,Dallas,32.831663,-97.094468,IGSA,Non-Dedicated
EXTSAAZ,Extended Stay America,,,,AZ,,Phoenix,34.048928,-111.093731,Hotel,Hotel
FAICOVA,Fairfax Co Jail,4110 Chain Bridge Rd,Fairfax,Fairfax City,VA,22030,Washington,38.843436,-77.308527,USMS IGA,Federal
FAULKAR,Faulkner County Jail,801 Locust St.,Conway,Faulkner,AR,72034,New Orleans,35.088787,-92.442618,IGSA,Non-Dedicated
FAULKSD,Faulk County Jail,924 Lafoon Avenue,Faulkton,Faulk,SD,57438,St. Paul,45.03344,-99.12614,IGSA,Non-Dedicated
FAYETKY,Fayette County Detention Center,600 Old Frankford Cr,Lexington,Fayette,KY,40510,Chicago,38.066097,-84.544851,USMS IGA,Federal
FAYHOLD,Fayetteville Hold Room,P.O. Box 1188 2887 N Point Circle,Fayetteville,Washington,AR,72701,New Orleans,36.10463,-94.178449,Hold,Hold/Staging
FCLT8CA,Facility 8 Detention Facility,446 Alta Rd,San Diego,San Diego,CA,92158,San Diego,32.591799,-116.923984,Unknown,Other/Unknown
FCOHOLD,Frederick Holdroom,3770 Puritan Way,Frederick,Weld,CO,80516,Denver,40.083661,-104.98429,Hold,Hold/Staging
FDLHOLD,Ferndale Hold Room,,Ferndale,Whatcom,WA,,Seattle,48.846499,-122.591006,Hold,Hold/Staging
FERRYWA,Ferry County Jail,165 North Jefferson,Republic,Ferry,WA,99166,Seattle,48.649394,-118.733792,IGSA,Non-Dedicated
FINNEKS,Finney County Jail,304 N. 9th Street,Garden City,Finney,KS,67846,Chicago,37.967657,-100.875929,IGSA,Non-Dedicated
FIPCAGA,Annex Folkston IPC,3424 Highway 252 East,Folkston,Charlton,GA,31537,Atlanta,30.883369,-81.990967,DIGSA,Dedicated
FIPCDGA,Folkston D Ray ICE Processing Ctr,3262 Highway 252,Folkston,Charlton,GA,31537,Atlanta,30.874581,-81.979593,DIGSA,Dedicated
FIPCMGA,Folkston Main IPC,3026 Hwy 252 East,Folkston,Charlton,GA,31537,Atlanta,30.87638,-81.977941,DIGSA,Dedicated
FLATHMT,Flathead County Jail,800 South Main,Kalispell,Flathead,MT,59901,Salt Lake City,48.190659,-114.310815,IGSA,Non-Dedicated
FLBAKCI,Baker C. I.,20706 U.S. Highway 90 West,Sanderson,Baker,FL,32087,Miami,30.214808,-82.372325,Unknown,Other/Unknown
FLBHCFL,Ft Lauderdale Behavor Hlth Ctr,5757 N Dixie Hwy,Oakland Park,Broward,FL,33334,Miami,26.197471,-80.133263,Hospital,Medical
FLBREVC,Brevard Correctional,860 Camp Road,Cocoa,Brevard,FL,32927,Miami,28.444041,-80.783094,Other,Other/Unknown
FLCHACI,"Charlotte CI, Punta Gorda",33123 Oil Well Road,Punta Gorda,Charlotte,FL,33955,Miami,26.805735,-81.903725,Unknown,Other/Unknown
FLDADCI,Dade Correctional Inst,19000 S.W. 377th Street,Florida City,Miami-Dade,FL,33034,Miami,25.417168,-80.502088,Unknown,Other/Unknown
FLDSSFS,Florida Soft-Sided Facility-South,54575 Tamiami Trail E,Ochopee,Collier,FL,34141,Miami,25.86434,-80.897956,,Dedicated
FLGLRFL,Flagler County Jail,1001 Justice Lane,Bunnell,Flagler,FL,32110,Miami,29.452338,-81.256133,Unknown,Other/Unknown
FLHOSFL,Fort Lauderdale Hospital,1601 E Las Olas Blvd,Fort Lauderdale,Broward,FL,33301,Miami,26.119681,-80.126777,Hospital,Medical
FLMARIC,Marion Correctional Inst.,3269 NW 105th Street,Ocala,Marion,FL,34475,Miami,29.304401,-82.179576,Other,Other/Unknown
FLO,Florence SPC,3250 North Pinal Parkway,Florence,Pinal,AZ,85132,Phoenix,33.06496,-111.378505,SPC,Dedicated
FLORHAZ,Florence Hospital,4545 N Hunt Highway,Florence,Pinal,AZ,85132,Phoenix,33.07325,-111.485449,Hospital,Medical
FLOYDGA,Floyd County Jail,2526 New Calhoun Highway ,Rome,Floyd,GA,30161,Atlanta,34.279919,-85.141616,USMS IGA,Federal
FLSPSTA,"Florida St. Pris.,Starke",23916 NW 83rd Avenue,Raiford,Union,FL,32026,Miami,30.058004,-82.182601,Unknown,Other/Unknown
FMYHOLD,Fort Myers ERO Holdroom,8860 Salrose Lane,Fort Myers,Lee,FL,33912,Miami,26.548906,-81.808365,Hold,Hold/Staging
FNDDUWI,Fond Du Lac County Sheriff/Jail,63 Western Ave,Fond Du Lac,Fond Du Lac,WI,54935,Chicago,43.773436,-88.449685,Unknown,Other/Unknown
FORSYNC,Forsyth County Jail,201 North Church Street,Winston-Salem,Forsyth,NC,27101,Atlanta,36.09651,-80.242718,USMS IGA,Federal
FPSSAWA,Four Pts Sheraton Sea Ap,,Des Moines,King,WA,,Seattle,47.400249,-122.296635,Hotel,Hotel
FRACOVT,"Franklin County Jail, VT",30 Lincoln Avenue,Saint Albans,Franklin,VT,05478,Boston,44.811291,-73.080359,IGSA,Non-Dedicated
FRANKPA,Franklin County Jail,1804 Opportunity Avenue ,Chambersburg,Franklin,PA,17201,Philadelphia,40.001549,-77.64441,Unknown,Other/Unknown
FRANKWA,Franklin County,1016 N 4th St,Pasco,Franklin,WA,99301,Seattle,46.213756,-119.042518,IGSA,Non-Dedicated
FRDHOLD,Frederick Holdroom,3770 Puritan Way,Frederick,Weld,CO,80516,Denver,40.083661,-104.98429,Hold,Hold/Staging
FRECOCA,Fresno County Jail,2200 Fresno Street,Fresno,Fresno,CA,93721,San Francisco,36.729188,-119.801754,IGSA,Non-Dedicated
FREDEMD,Frederick County Det. Cen,7300 Marcie's Choice Lane,Frederick,Frederick,MD,21704,Baltimore,39.36508,-77.41508,IGSA,Non-Dedicated
FREEBMN,"Freeborn County Jail, MN",411 South Broadway Avenue,Albert Lea,Freeborn,MN,56007,St. Paul,43.646255,-93.367781,IGSA,Non-Dedicated
FREESTX,Freestone County Jail,102 E Main St,Fairfield,Freestone,TX,75840,Houston,31.724613,-96.165248,IGSA,Non-Dedicated
FREHOLD,Fresno Holdroom,733 L Street,Fresno,Fresno,CA,93721,San Francisco,36.732676,-119.785296,Hold,Hold/Staging
FREMOCO,"Fremont County Jail, CO",100 Justice Center Road,Canon City,Fremont,CO,81212,Denver,38.446849,-105.18313,IGSA,Non-Dedicated
FREMOWY,"Fremont County Jail, WY",450 North 2nd Street,Lander,Fremont,WY,82520,Denver,42.836282,-108.727575,IGSA,Non-Dedicated
FRFLDWY,Fairfield Inn & Suites,1820 W Lincolnway,Cheyenne,Laramie,WY,82001,Denver,41.125209,-104.835202,Hotel,Hotel
FRIOCTX,Frio County Jail,502 S Cedar St,Pearsall,Frio,TX,78061,San Antonio,28.887948,-99.091675,IGSA,Non-Dedicated
FRIRHTX,Frio Regional Hospital,200 Ih-35 South,Pearsall,Frio,TX,78061,San Antonio,28.88813,-99.109733,Hospital,Medical
FRMVLVA,ICA - Farmville,508 Waterworks Road,Farmville,Prince Edward,VA,23901,Washington,37.319501,-78.438276,DIGSA,Dedicated
FSAHOLD,Fort Smith Holdroom,4991 Old Greenwood Rd,Fort Smith,Sebastian,AR,72903,New Orleans,35.332868,-94.387825,Hold,Hold/Staging
FSF,Florence Staging Facility,3250 North Pinal Parkway,Florence,Pinal,AZ,85132,Phoenix,33.06496,-111.378505,Staging,Hold/Staging
FXADCVA,Fairfax Co. Adult Detention Center,10520 Judicial Drive,Fairfax,Fairfax City,VA,22030,Washington,38.843634,-77.311195,IGSA,Non-Dedicated
GADRYJM,D. Ray James Prison,3262 Highway 252,Folkston,Charlton,GA,31537,Atlanta,30.87398,-81.979475,BOP,Federal
GALLAMT,Gallatin County Jail,615 South 16th Street,Bozeman,Gallatin,MT,59715,Salt Lake City,45.673753,-111.059585,IGSA,Non-Dedicated
GARVIOK,Garvin County Jail,201 West Grant Avenue,Pauls Valley,Garvin,OK,73075,Dallas,34.740003,-97.222229,IGSA,Non-Dedicated
GASTNNC,Gaston County Jail,425 North Marietta Street,Gastonia,Gaston,NC,28052,Atlanta,35.2675,-81.182088,IGSA,Non-Dedicated
GCLECOK,Grady County Law Enforcement Ctr,215 North 3rd Street,Chickasha,Grady,OK,73018,Dallas,35.05698,-97.943115,Unknown,Other/Unknown
GCPFCKS,Garden City Processing @ Finney Co,304 N. 9th Street,Garden City,Finney,KS,67846,Chicago,37.967657,-100.875929,Unknown,Other/Unknown
GEAUGOH,Geauga County Jail,12450 Merritt Dr,Chardon,Geauga,OH,44024,Detroit,41.504557,-81.19155,USMS IGA,Federal
GENESNY,Genesee County Jail,14 W. Main Street,Batavia,Genesee,NY,14020,Buffalo,42.998731,-78.188095,USMS IGA,Federal
GFCORND,Grand Forks County Correc,1701 North Washington St,Grand Forks,Grand Forks,ND,58206,St. Paul,47.935792,-97.055851,IGSA,Non-Dedicated
GFJUVND,Grand Forks Co. Juvenile,1701 North Washington St,Grand Forks,Grand Forks,ND,58206,St. Paul,47.935792,-97.055851,Juvenile,Family/Youth
GIJUVAZ,Gila County Juvenile Det Center,1425 E. South Street,Globe,Gila,AZ,85501,Phoenix,33.40038,-110.768827,Juvenile,Family/Youth
GJCHOLD,Grand Junction Holdroom,571 S. Commercial Drive,Grand Junction,Mesa,CO,81501,Denver,39.087429,-108.585533,Hold,Hold/Staging
GLADEFL,Glades County Detention Center,1297 East Sr 78,Moore Haven,Glades,FL,33471,Miami,26.838714,-81.124018,IGSA,Non-Dedicated
GLDSACA,Golden State Annex,611 Frontage Road,Mcfarland,Kern,CA,93250,San Francisco,35.669764,-119.227817,CDF,Dedicated
GLEPDCA,Glendale Police Dept,131 North Isabel Street,Glendale,Los Angeles,CA,91206,Los Angeles,34.147255,-118.249215,IGSA,Non-Dedicated
GLOUCNJ,Gloucester County Jail,70 Hunter Street,Woodbury,Gloucester,NJ,08096,Newark,39.838907,-75.149195,IGSA,Non-Dedicated
GMHATGA,Grady Memorial Hospital,80 Jesse Hill Jr Dr SE,Atlanta,Fulton,GA,30303,Atlanta,33.751493,-84.382663,Hospital,Medical
GOODCID,Gooding County Jail,624 Main St.,Gooding,Gooding,ID,83330,Salt Lake City,42.938991,-114.712201,Unknown,Other/Unknown
GOSHEWY,Goshen County Jail,2120 E B St,Torrington,Goshen,WY,82240,Denver,42.065322,-104.182019,IGSA,Non-Dedicated
GPCHOLD,Great Plains CI Holdroom,700 Sugar Creek Road,Hinton,Caddo,OK,73047,Dallas,35.446946,-98.367623,Hold,Hold/Staging
GRAHAAZ,Graham Co Jail Safford AZ,523 10th Ave,Safford,Graham,AZ,85546,Phoenix,32.855935,-109.712106,Unknown,Other/Unknown
GRANTOR,Grant County Jail,Grant County Jail,Canyon City,Grant,OR,97820,Seattle,44.387071,-118.950498,IGSA,Non-Dedicated
GRANTWA,Grant County,35 C St N.W.,Ephrata,Grant,WA,98823,Seattle,47.32154,-119.552963,IGSA,Non-Dedicated
GRAYSKY,Grayson County Detention Center,320 Shaw Station Road,Leitchfield,Grayson,KY,42754,Chicago,37.491073,-86.25788,USMS IGA,Federal
GREENMA,Franklin House of Corrections,160 Elm Street,Greenfield,Franklin,MA,01301,Boston,42.596402,-72.61246,USMS IGA,Federal
GREENMO,Greene County Jail,929 N. Robberson,Springfield,Greene,MO,65802,Chicago,37.217759,-93.291068,IGSA,Non-Dedicated
GRFHOLD,Grand Forks Hold Room,124 North 6th Street,Grand Forks,Grand Forks,ND,58203,St. Paul,47.92382,-97.034978,Hold,Hold/Staging
GRGBVTX,Georgetown Behavioral Hospital,3101 S Austin Ave,Georgetown,Williamson,TX,78626,San Antonio,30.614889,-97.680628,Hospital,Medical
GRIHOLD,Grand Island Hold Room,220 N. Walnut Street,Grand Island,Hall,NE,68801,St. Paul,40.924152,-98.343144,Hold,Hold/Staging
GRMHOLD,Grand Rapids Holdroom,517 Ottawa Ave NW,Grand Rapids,Kent,MI,49503,Detroit,42.972684,-85.670052,Hold,Hold/Staging
GRRHOLD,Greer Hold Room,501 Pennsylvania Ave,Greer,Greenville,SC,29650,Atlanta,34.937155,-82.241882,Hold,Hold/Staging
GRYDCKY,Grayson County Det Center (Female),320 Shaw Station Road,Leitchfield,Grayson,KY,42754,Chicago,37.491073,-86.25788,USMS IGA,Federal
GSAMHCA,Good Samaritan Hospital,2425 Samaritan Dr,San Jose,Santa Clara,CA,95124,San Francisco,37.253163,-121.947422,Hospital,Medical
GSCHOLD,Glenwood Springs Holdroom,100 Midland Avenue,Glenwood Springs,Garfield,CO,81601,Denver,39.515051,-107.323402,Hold,Hold/Staging
GSMCDPA,Geisinger Medical Center,100 N Academy Ave,Danville,Montour,PA,17822,Philadelphia,40.967687,-76.604577,Hospital,Medical
GTMOACU,JTF Camp Six,Avenue C Psc 1005 Box 55,FPO,,CU,,Miami,21.521757,-77.781167,DOD,Federal
GTMOBCU,Migrant Ops Center East,Avenue C Psc 1005 Box 55,FPO,,CU,,Miami,21.521757,-77.781167,DOD,Federal
GTMODCU,Migrant Ops Center Main Av622,Avenue C Psc 1005 Box 55,FPO,,CU,,Miami,21.521757,-77.781167,MOC,Federal
GUADATX,Guadalupe Cty Jail,2615 N Guadalupe St,Seguin,Guadalupe,TX,78155,San Antonio,29.603766,-97.970028,IGSA,Non-Dedicated
GUAMHGU,Guam Memorial Hospital,850 Gov Carlos G Camacho Rd.,Tamuning,Guam,GU,96913,San Francisco,13.504854,144.774507,Medical,Medical
GUDOCHG,Dept Of Corrections-Hagatna,203 Aspinall Avenue,Hagatna,Guam,GU,96910,San Francisco,13.475742,144.750595,USMS IGA,Federal
GWINNGA,Gwinnett County Jail,2900 University Parkway,Lawrenceville,Gwinnett,GA,30043,Atlanta,33.982182,-83.977264,IGSA,Non-Dedicated
HACMCNJ,Hackensack Med Ctr,30 Prospect Avenue,Hackensack,Bergen,NJ,07601,Newark,40.88386,-74.056398,Hospital,Medical
HACTCND,Heart Of America Corr,110 Industrial Rd,Rugby,Pierce,ND,58368,St. Paul,48.373712,-99.977499,Unknown,Other/Unknown
HAILEID,Haile Det. Center,1115 Albany,Caldwell,Canyon,ID,83605,Salt Lake City,43.664802,-116.681682,IGSA,Non-Dedicated
HALLJGA,Hall Co Jail,1700 Barber Road,Gainesville,Hall,GA,30507,Atlanta,34.242651,-83.815583,USMS IGA,Federal
HAMILTN,Hamilton Co. Jail (Tenn),601 Justice Way,Chattanooga,Hamilton,TN,37421,New Orleans,35.051205,-85.132546,,Non-Dedicated
HAMILTX,Hamilton County Jail (TX),1108 S Rice St,Hamilton,Hamilton,TX,76531,Houston,31.691992,-98.128735,Unknown,Other/Unknown
HAMPDMA,Hampden Co.House Of Corr.,627 Randall Road,Ludlow,Hampden,MA,01056,Boston,42.204608,-72.510572,IGSA,Non-Dedicated
HAMPITX,Hampton Inn Pearsall,,Pearsall,Frio,TX,,San Antonio,28.894892,-99.111638,Family Staging,Family/Youth
HARDEFL,Hardee County Jail,900 East Summit Street,Wauchula ,Hardee,FL,33873,Miami,27.543245,-81.801854,Unknown,Other/Unknown
HARDJIA,Hardin Co Jail,1116 14th Avenue,Eldora,Hardin,IA,50627,St. Paul,42.359845,-93.097371,IGSA,Non-Dedicated
HARFOCT,Hartford Corr Center,177 Weston Street,Hartford,Hartford,CT,06120,Boston,41.793296,-72.660058,IGSA,Non-Dedicated
HARHOLD,Hartford Office,450 Main Street,Hartford,Hartford,CT,06103,Boston,41.651255,-72.603666,Hold,Hold/Staging
HARRIGA,Harris County Jail,"Hwy 116 E, Po Box 286",Hamilton,Harris,GA,31811,Atlanta,32.764412,-84.866192,IGSA,Non-Dedicated
HARRIMS,Harrison Detention Center,10451 Larkin Smith Drive,Gulfport,Harrison,MS,39503,New Orleans,30.43979,-89.054704,,Non-Dedicated
HASHENE,Hall County Sheriff,110 Public Safety Drive,Grand Island,Hall,NE,68801,St. Paul,40.926919,-98.328077,IGSA,Non-Dedicated
HASKLTX,Rolling Plains Detention Center,118 County Road 206,Haskell,Haskell,TX,79521,Dallas,33.176272,-99.721789,USMS IGA,Federal
HASMHTX,Haskell Memorial Hospital,1 Avenue N,Haskell,Haskell,TX,79521,Dallas,33.157256,-99.744781,Hospital,Medical
HAVACTX,Hotel Ava Casa Do Tranquilidade,,Laredo,Webb,TX,,Harlingen,27.522172,-99.503909,Family Staging,Family/Youth
HAVMCWA,Harborview Medical Center,325 9th Ave Main Hospital,Seattle,King,WA,98104,Seattle,47.603917,-122.323905,Hospital,Medical
HBGHOLD,Harrisonburg Hold Room,263 Neff Ave.,Harrisonburg,Harrisonburg City,VA,22801,Washington,38.426799,-78.848388,Hold,Hold/Staging
HCAFMFL,HCA Florida Memorial Hospital,3625 University Blvd S,Jacksonville,Duval,FL,32216,Miami,30.28838,-81.601333,Hospital,Medical
HCAHCTX,HCA Houston Hc Conroe,504 Medical Center Blvd,Conroe,Montgomery,TX,77304,Houston,30.284935,-95.467788,Hospital,Medical
HCMCMMN,Hennepin County Med Ctr,730 South 8th Street,Minneapolis,Hennepin,MN,55415,St. Paul,44.972765,-93.26245,Medical,Medical
HCPSCMS,Hancock Co Pub Sfty Cplx,8450 Us-90,Bay St. Louis,Hancock,MS,39520,New Orleans,30.303202,-89.4765,IGSA,Non-Dedicated
HCPSYTX,Harris County Psychiatric Center,2800 S MacGregor Way,Houston,Harris,TX,77021,Houston,29.712155,-95.374527,Hospital,Medical
HDHSPNV,Henderson Hospital,1050 W Galleria Dr,Henderson,Clark,NV,89011,Salt Lake City,36.072843,-115.030473,Hospital,Medical
HDLGOTX,Hidalgo Police Dept.,211 E. Esperanza Avenue,Hidalgo,Hidalgo,TX,78557,Harlingen,26.100246,-98.260257,Unknown,Other/Unknown
HELHOLD,Hel District Custody,805 Colleen Street,Helena,Lewis And Clark,MT,59601,Salt Lake City,46.5935,-111.974176,Hold,Hold/Staging
HENDENC,Henderson County Det. Fac.,375 1st Avenue East,Hendersonville,Henderson,NC,28792,Atlanta,35.314884,-82.456379,IGSA,Non-Dedicated
HENDENV,Henderson Detention,18 E Basic Road,Henderson,Clark,NV,89015,Salt Lake City,36.033216,-114.974629,USMS IGA,Federal
HENDETX,Henderson County Jail,206-A North Murchison Street,Athens,Henderson,TX,75751,Dallas,32.212801,-95.855713,IGSA,Non-Dedicated
HENDRFL,Hendry County Jail,101 South Bridge Street,Labelle,Hendry,FL,33935,Miami,26.760472,-81.436646,IGSA,Non-Dedicated
HENHOLD,Hendersonville Hold Room,518 6th Ave W,Hendersonville,Henderson,NC,28792,Atlanta,35.318807,-82.468082,Hold,Hold/Staging
HENRIVA,Henrico County Jail,17320 New Kent Hwy,Barhamsville,New Kent,VA,23011,Washington,37.49546,-76.861121,,Non-Dedicated
HERNAFL,Hernando County Jail,16425 Spring Hill Drive,Brooksville,Hernando,FL,34604,Miami,28.483619,-82.451205,IGSA,Non-Dedicated
HESPCAZ,Holiday Inn Express Casa De La Luz,,Phoenix,Maricopa,AZ,,Phoenix,33.308392,-111.973408,Family Staging,Family/Youth
HGHBECO,Highlands Behavioral Health,8565 Poplar Way,Littleton,Jefferson,CO,80130,Denver,39.56276,-104.90765,Hospital,Medical
HHBTHTX,Harris Health Ben Taub Hospital,1504 Taub Loop,Houston,Harris,TX,77030,Houston,29.710657,-95.39383,Hospital,Medical
HHCHKTX,Houston Healthcare Hosp,1313 Hermann Dr,Houston,Harris,TX,77004,Houston,29.72272,-95.387543,Hospital,Medical
HHWHOLD,INS District Office,595 Ala Moana Blvd,Honolulu,Honolulu,HI,96813,San Francisco,21.299633,-157.863124,Hold,Hold/Staging
HICOJFL,Hillsborough County Jail,1201 North Orient Road,Tampa,Hillsborough,FL,33619,Miami,27.95822,-82.373091,IGSA,Non-Dedicated
HIDALNM,Hidalgo County Detention Center,83 Old Highway 70,Lordsburg,Hidalgo,NM,88045,El Paso,32.337628,-108.665511,IGSA,Non-Dedicated
HIDALTX,Hidalgo County Jail,3100 South Hwy 281,Edinburg,Hidalgo,TX,78539,Harlingen,26.416723,-98.127738,IGSA,Non-Dedicated
HIELPTX,Holiday Inn Express & Suites,,El Paso,El Paso,TX,,El Paso,31.761878,-106.485022,Hotel,Hotel
HIESATX,Holiday Inn Exp San Antonio,,San Antonio,Bexar,TX,,San Antonio,29.402156,-98.390268,Hotel,Hotel
HIESPAZ,Holiday Inn Exp Phoenix,,Phoenix,Maricopa,AZ,,Phoenix,33.415957,-112.007259,Hotel,Hotel
HIEXSTX,Holiday Inn Expr & Stes Pearsall,,Pearsall,Frio,TX,,San Antonio,28.893971,-99.117637,Hotel,Hotel
HILLCMT,Hill County Justice Center,1450 2nd Street West,Havre,Hill,MT,59501,Salt Lake City,48.552885,-109.706831,USMS IGA,Federal
HIPANAZ,Hampton Inn Pho Airport N,601 N 44th St,Phoenix,Maricopa,AZ,85008,Phoenix,33.455005,-111.986524,Hotel,Hotel
HIPDBAZ,Holiday Inn Pho Dwtn Ballpark,,Phoenix,Maricopa,AZ,,Phoenix,33.455025,-112.066792,Hotel,Hotel
HIRAYTX,Holiday Inn Express & Suites,,,Unknown,TX,,Unknown,31.968599,-99.901813,Hotel,Hotel
HISAXLA,Hampton Inn & Stes Alexandria,,Alexandria,Rapides,LA,,New Orleans,31.346642,-92.522485,Hotel,Hotel
HISDBCA,Holiday Inn SND Bayside,,San Diego,San Diego,CA,,San Diego,32.726333,-117.223509,Hotel,Hotel
HISEPTX,Hampton Inn & Stes Elp Ap,,El Paso,El Paso,TX,,El Paso,31.780641,-106.39488,Hotel,Hotel
HISMCTX,Hampton Inn & Stes Mcallen,10 W Expressway 83,Mcallen,Hidalgo,TX,78501,Harlingen,26.188898,-98.221493,Hotel,Hotel
HISPAAZ,Holiday Inn & Ste Pho Ap,,Phoenix,Maricopa,AZ,,Phoenix,33.418325,-111.979392,Hotel,Hotel
HLFRJVA,B.R.R.J. Halifax,1010 Blue Ridge Lane,Halifax,Halifax,VA,24558,Washington,36.765066,-78.930114,,Non-Dedicated
HLGHOLD,Harlingen Hold Room,1717 Zoy Street,Harlingen,Cameron,TX,78550,Harlingen,26.178023,-97.714124,Hold,Hold/Staging
HLYCHIL,Holy Cross Hospital,2701 W 68th St,Chicago,Cook,IL,60629,Chicago,41.769365,-87.692212,Hospital,Medical
HMCHOTX,Harlingen Medical Center,5501 S Expressway 71,Harlingen,Cameron,TX,78550,Harlingen,26.157745,-97.67513,Hospital,Medical
HNDMCTX,Hendrick Medical Center,1900 Pine St,Abilene,Taylor,TX,79601,Dallas,32.471824,-99.732563,Hospital,Medical
HNRMCFL,Henry Regional Medical Center,524 W Sagamore Avenue,Clewiston,Hendry,FL,33440,Miami,26.753721,-80.941304,Hospital,Medical
HNYHOMI,Henry Ford Hospital,2799 W Grand Blvd,Detroit,Wayne,MI,48202,Detroit,42.367384,-83.085376,Hospital,Medical
HOKLYTX,Hockley County Jail,1310 Avenue H,Levelland,Hockley,TX,79336,Dallas,33.578313,-102.378818,IGSA,Non-Dedicated
HOLIETX,Holiday Inn Exp SNA Ap,,San Antonio,Bexar,TX,,San Antonio,29.521685,-98.485678,Hotel,Hotel
HOSPSPR,Hospital Pavia-Santurce,1462 Asia St Po Box 11137,San Juan,San Juan,PR,00909,Miami,18.444251,-66.068992,Hospital,Medical
HOTELMA,Ramada Hotel,225 McClellan Highway,East Boston,Suffolk,MA,02128,Boston,42.387526,-71.017669,Hotel,Hotel
HOUHOLD,Houston FO Holdroom,5520 Greens Rd.,Houston,Harris,TX,77032,Houston,29.952045,-95.311156,Hold,Hold/Staging
HOUICDF,Houston Contract Det.Fac.,15850 Export Plaza Drive,Houston,Harris,TX,77032,Houston,29.950836,-95.312188,CDF,Dedicated
HOWARMD,Howard County Det Cntr,7301 Waterloo Road,Jessup,Howard,MD,20794,Baltimore,39.169411,-76.781791,IGSA,Non-Dedicated
HPKNSKY,Hopkins County Jail,2250 Laffoon Trl ,Madisonville,Hopkins,KY,42431,Chicago,37.337747,-87.539913,USMS IGA,Federal
HRLGNTX,Harlingen Police Dept.,1018 Fair Park,Harlingen,Cameron,TX,78550,Harlingen,26.200493,-97.705624,Unknown,Other/Unknown
HRREGVA,Hampton Roads Regional Jail,2690 Elmhurst Lane,Portsmouth,Portsmouth City,VA,23701,Washington,36.804472,-76.368436,USMS IGA,Federal
HSELPTX,Hawthorn Stes El Paso Airp,,El Paso,El Paso,TX,,El Paso,31.792505,-106.393933,Hotel,Hotel
HSF,Harlingen Staging Facility,1102 South Commerce Street,Harlingen,Cameron,TX,78550,Harlingen,26.181208,-97.684858,Staging,Hold/Staging
HTLPPTX,Hotel Pharr Plaza,,Pharr,Hidalgo,TX,,Harlingen,26.158075,-98.190395,Hotel,Hotel
HUDSONJ,Hudson County Jail,30-35 Hackensack Ave.,Kearny,Hudson,NJ,07032,Newark,40.72991,-74.103398,IGSA,Non-Dedicated
HUDSPTX,Hudspeth County Jail,525 North Wilson Avenue,Sierra Blanca,Hudspeth,TX,79851,El Paso,31.184107,-105.358588,IGSA,Non-Dedicated
IAHSFTX,George Bush Intercontinental,2800 N. Terminal Road,Houston,Harris,TX,77032,Houston,29.983924,-95.332202,Staging,Hold/Staging
IBPSMIA,Miami Border Patrol,51 SW 1st Ave,Miami,Miami-Dade,FL,33130,Miami,25.773994,-80.195019,Unknown,Other/Unknown
IFIHOLD,Idaho Falls Hold Room,2075 North Boulevard,Idaho Falls,Bonneville,ID,83401,Salt Lake City,43.514758,-112.033754,Hold,Hold/Staging
ILPICKN,Pinckneyville Correctional Center,5835 State Route 154,Pinckneyville,Perry,IL,62274,Chicago,38.088169,-89.329431,Unknown,Other/Unknown
IMPCOCA,Imperial County Jail,328 Applestill Road,El Centro,Imperial,CA,92243,San Diego,32.748772,-115.563059,IGSA,Non-Dedicated
IMPHOLD,Imperial Sub Office Hold Room,,Calexico,Imperial,CA,,San Diego,32.678948,-115.498883,Hold,Hold/Staging
INDCMIC,IN Dept. Of Corrections,302 W Washington Street IGCS Room E334,Indianapolis,Marion,IN,46204,Chicago,39.767568,-86.165288,Unknown,Other/Unknown
INDMPIN,Indianapolis Metropolitan PD,50 Alabama St,Indianapolis,Marion,IN,46204,Chicago,39.768485,-86.15294,Unknown,Other/Unknown
INMIAMI,Miami Correctional Center,3038 West 850 South P.O. Box 900,Bunkerhill,Miami,IN,46914,Chicago,40.644997,-86.132978,IGSA,Non-Dedicated
INPHOLD,Indianapolis Hold Room,40 South Alabama Street,Indianapolis,Marion,IN,46204,Chicago,39.76654,-86.153286,Hold,Hold/Staging
INTEGOK,Integris Health Baptist Medical,5501 N. Portland,Oklahoma City,Oklahoma,OK,73112,Dallas,35.526239,-97.58504,Medical,Medical
INTPOOK,Integris Health Ponca City Hospita,1900 N 14th St,Ponca City,Kay,OK,74601,Dallas,36.724724,-97.0685,Hospital,Medical
IRADFCA,Imperial Regional Adult Det Fac,1572 Gateway,Calexico,Imperial,CA,92231,San Diego,32.690811,-115.397861,CDF,Dedicated
IRWINGA,Irwin County Detention Center,132 Cotton Drive,Ocilla,Irwin,GA,31772,Atlanta,31.580997,-83.254628,IGSA,Non-Dedicated
ISHOSNY,"Beth Israel Hospital, Manhattan",305 1st Avenue # Dazian 7,New York,New York,NY,10003,New York,40.734669,-73.981017,Hospital,Medical
IWAHOLD,AZ Rem Op Coord Center (AROCC),130 N Robson,Mesa,Maricopa,AZ,85201,Phoenix,33.418011,-111.836757,Hold,Hold/Staging
JACKSOR,Jackson Co Jail,787 West 8th Street,Medford,Jackson,OR,97501,Seattle,42.321995,-122.878672,USMS IGA,Federal
JACKSTN,Jackson County Sheriff,620 Hospital Dr,Gainesboro,Jackson,TN,38562,New Orleans,36.348705,-85.65613,Unknown,Other/Unknown
JAJUVOR,Jackson County Juvenile,609 West 10th Street,Medford,Jackson,OR,97501,Seattle,42.320869,-122.877772,Juvenile,Family/Youth
JAKHOLD,Jackson MS Hold Room,202 Metroplex Blvd,Pearl,Rankin,MS,39208,New Orleans,32.287959,-90.060426,Hold,Hold/Staging
JAMESGA,Main Folkston IPC Drjames,3423 Highway 252 East,Folkston,Charlton,GA,31537,Atlanta,30.872094,-81.98247,DIGSA,Dedicated
JAXHOLD,Jacksonville Sub-Office,4121 Southpoint Blvd,Jacksonville,Duval,FL,32216,Miami,30.255532,-81.590026,Hold,Hold/Staging
JCRLYTX,Joe Corley Processing Ctr,500 Hilbig Rd,Conroe,Montgomery,TX,77301,Houston,30.34444,-95.46021,IGSA,Non-Dedicated
JEFFECO,Jefferson County Jail,200 Jefferson County Parkway,Golden,Jefferson,CO,80401,Denver,39.730108,-105.204261,IGSA,Non-Dedicated
JEFFEID,Jefferson County Jail,219 East Fremont Ave,Rigby,Jefferson,ID,83442,Salt Lake City,43.673358,-111.910892,IGSA,Non-Dedicated
JEFFEIL,Jefferson County Jail,911 Casey Avenue,Mount Vernon,Jefferson,IL,62864,Chicago,38.314552,-88.902535,IGSA,Non-Dedicated
JEFFEKS,Jefferson County Jail,1360 Walnut Street,Oskaloosa,Jefferson,KS,66066,Chicago,39.207132,-95.311353,USMS IGA,Federal
JEFFEMT,Jefferson County Jail,110 South Washington Street,Boulder,Jefferson,MT,59632,Salt Lake City,46.235788,-112.121143,USMS IGA,Federal
JEFFENY,Jefferson County Jail,753 Waterman Drive,Watertown,Jefferson,NY,13601,Buffalo,43.973502,-75.928291,IGSA,Non-Dedicated
JEFFETX,Jefferson County Jail,1001 Pearl Street,Beaumont,Jefferson,TX,77701,Houston,30.079492,-94.094305,IGSA,Non-Dedicated
JENADLA,Lasalle ICE Processing Center,830 Pinehill Road,Jena,Lasalle,LA,71342,New Orleans,31.707274,-92.15106,DIGSA,Dedicated
JENATLA,Alexandria Staging Facility,1511 Arnold Drive,Alexandria,Rapides,LA,71303,New Orleans,31.31723,-92.5364,Staging,Hold/Staging
JENNIMO,Jennings City Jail,5445 Jennings Station Road,Jennings,St. Louis,MO,63136,Chicago,38.710918,-90.26656,USMS IGA,Federal
JFKTSNY,JFK International Ap - T7,Terminal 7,Jamaica,Queens,NY,11430,New York,40.649562,-73.782718,Other,Other/Unknown
JHALLCA,San Diego County Juv.Hall,2801 Meadowlark Drive,San Diego,San Diego,CA,92123,San Diego,33.386379,-117.563388,Juvenile,Family/Youth
JHMCJNY,Jamaica Hospital Med Ctr,8900 Vanwyck Expressway ,Richmond Hill,Queens,NY,11418,New York,40.700537,-73.816226,Hospital,Medical
JHRWLTX,Jack Harwell Detention Center,3101 Marlin Hwy,Waco,Mclennan,TX,76705,Houston,31.546298,-97.067347,USMS IGA,Federal
JKPCCLA,Jackson Parish Correctional Center,327 Industrial Drive,Jonesboro,Jackson,LA,71251,New Orleans,32.222096,-92.724609,DIGSA,Dedicated
JMHOSFL,Jackson Memorial Hospital,1611 N.W. 12th Ave,Miami,Miami-Dade,FL,33136,Miami,25.792538,-80.213994,Hospital,Medical
JMTHOVA,Johnston Memorial Hospital,16000 Johnston Memorial Drive,Abingdon,Washington,VA,24211,Washington,36.72385,-81.912301,Medical,Medical
JOHNSTX,Johnson County Jail,1800 Ridgemar Drive,Cleburne,Johnson,TX,76031,Dallas,32.374902,-97.388465,IGSA,Non-Dedicated
JOPSHTX,John Peter Smith Hospital,1500 S Main St,Fort Worth,Tarrant,TX,76104,Dallas,32.728058,-97.32748,Medical,Medical
JOSEPOR,Josephine Co. Jail,1901 Northeast F Street,Grants Pass,Josephine,OR,97526,Seattle,42.438478,-123.319457,USMS IGA,Federal
JYCMCNJ,Jersey City Med Ctr,355 Grand Street,Jersey City,Hudson,NJ,07302,Newark,40.716302,-74.050392,Hospital,Medical
KANDIMN,Kandiyohi Co. Jail,2201 23rd St NE,Willmar,Kandiyohi,MN,56201,St. Paul,45.146011,-95.013688,IGSA,Non-Dedicated
KANECIL,Kane County Jail,37W55 Illinois Route 38,St Charles,Kane,IL,60175,Chicago,41.900152,-88.355539,Unknown,Other/Unknown
KANHOLD,Kansas City Holdroom,9747 NW Conant Avenue,Kansas City,Platte,MO,64101,Chicago,39.268843,-94.675548,Hold,Hold/Staging
KANKEIL,Kankakee County Jail,3050 Justice Way,Kankakee,Kankakee,IL,60901,Chicago,41.075738,-87.859227,USMS IGA,Federal
KARNETX,Karnes Cty Corr Ctr,810 Commerce St,Karnes City,Karnes,TX,78118,San Antonio,28.883485,-97.911848,USMS IGA,Federal
KCCDCTX,Karnes County Civil Det. Facility,Fm 1144 At Us Highway 181,Karnes City,Karnes,TX,78118,San Antonio,28.884651,-97.915298,Family,Family/Youth
KCHOSNY,Kings County Hospital,451 Clarkson Ave.,Brooklyn,Kings,NY,11203,New York,40.656696,-73.943466,Hospital,Medical
KCOJFOK,Kay Co Justice Facility,1101 West Dry Road,Newkirk,Kay,OK,74647,Dallas,36.879621,-97.075195,IGSA,Non-Dedicated
KENMHNY,Kenmore Mercy Hospital,2950 Elmwood Ave,Kenmore,Erie,NY,14217,Buffalo,42.97767,-78.879949,Medical,Medical
KENOSWI,Kenosha County Jail,4777 88th Avenue,Kenosha,Kenosha,WI,53144,Chicago,42.593216,-87.914896,USMS IGA,Federal
KENTCMI,"Kent Co.,Grand Rapids,MI",701 Ball Avenue Northeast,Grand Rapids,Kent,MI,49503,Detroit,42.976247,-85.629905,IGSA,Non-Dedicated
KENTHRI,Kent Hospital,455 Toll Gate Rd,Warwick,Kent,RI,02886,Boston,41.705411,-71.477898,Hospital,Medical
KENTOKY,Kenton Co Detention Ctr,303 Court Street,Covington,Kenton,KY,41011,Chicago,39.00245,-84.531062,IGSA,Non-Dedicated
KERCOCA,Kern County Jail (Lerdo),17695 Industrial Farm Road,Bakersfield,Kern,CA,93308,San Francisco,35.653064,-119.107939,IGSA,Non-Dedicated
KERNHCA,Kern Medical Hospital,1700 Mount Vernon Ave,Bakersfield,Kern,CA,93306,San Francisco,35.382272,-118.969998,Hospital,Medical
KINNETX,Kinney County Jail,109 North Street,Brackettville,Kinney,TX,78832,San Antonio,29.311329,-100.418034,IGSA,Non-Dedicated
KITTIWA,Kittitas County Jail,205 West 5th Avenue,Ellensburg,Kittitas,WA,98926,Seattle,46.996566,-120.549811,IGSA,Non-Dedicated
KLAMCOR,Klamath Co Jail,3201 Vandenberg Avenue,Klamath Falls,Klamath,OR,97603,Seattle,42.22184,-121.748813,IGSA,Non-Dedicated
KNXCHTX,Knox County Hospital,701 S E 5th St,Knox City,Knox,TX,79529,Dallas,33.414512,-99.811246,Hospital,Medical
KNXDFTN,Knox County Detention Facility,5001 Maloneyville Rd,Knoxville,Knox,TN,37918,New Orleans,36.093499,-83.847656,USMS IGA,Federal
KNXHOLD,Knoxville Hold Room,400 Main St SW,Knoxville,Knox,TN,37902,New Orleans,35.960303,-83.916773,Hold,Hold/Staging
KODIAAK,Kodiak City Jail,217 Lower Mill Bay Road,Kodiak,Kodiak Island,AK,99615,Seattle,57.790987,-152.40583,IGSA,Non-Dedicated
KOOTEID,Kootenai County,5500 North Government Way,Coeur D'Alene,Kootenai,ID,83815,Salt Lake City,47.701751,-116.786279,IGSA,Non-Dedicated
KPCHOAZ,Promise Hospital,433 E 6th St,Mesa,Maricopa,AZ,85203,Phoenix,33.425398,-111.821629,Hospital,Medical
KRHUBFL,Krome/Miami Hub,Concourse E Satellitmiami International,Miami,Miami-Dade,FL,33299,Miami,25.75434,-80.48913,Hold,Hold/Staging
KRNRCTX,Karnes County Residential Center,Fm 1144 At Us Highway 181,Karnes City,Karnes,TX,78118,San Antonio,28.884651,-97.915298,Family,Family/Youth
KRO,Krome North SPC,18201 SW 12th St,Miami,Miami-Dade,FL,33194,Miami,25.76032,-80.496826,SPC,Dedicated
KROHOLD,Krome Hold Room,18201 SW 12th St,Miami,Miami-Dade,FL,33194,Miami,25.758146,-80.350939,Hold,Hold/Staging
LACKAPA,"Lackawana Cnty Jail, PA",1371 North Washington Avenue,Scranton,Lackawanna,PA,18509,Philadelphia,41.422344,-75.647865,USMS IGA,Federal
LAFERTX,La Feria Police Dept.,115 E Commercial Ave,La Feria,Cameron,TX,78559,Harlingen,26.158969,-97.823071,Unknown,Other/Unknown
LAKCOFL,Lake County Jail,551 W. Main St,Tavares,Lake,FL,32778,Miami,28.802003,-81.732923,Unknown,Other/Unknown
LAKCOMT,Lake County Jail,106 4th Avenue East,Polson,Lake,MT,59860,Salt Lake City,47.692228,-114.160558,IGSA,Non-Dedicated
LAKMCFL,Lakeside Medical Center,39200 Hooker Highway,Belle Glade,Palm Beach,FL,33430,Miami,26.725332,-80.668075,Hospital,Medical
LANCACA,Mira Loma Det.Center,45100 60th Street West,Lancaster,Los Angeles,CA,93536,Los Angeles,34.701656,-118.233176,DIGSA,Dedicated
LANECOR,Lane Co Jail,125 East 8th Avenue,Eugene,Lane,OR,97401,Seattle,44.0511,-123.090116,IGSA,Non-Dedicated
LAPAZAZ,La Paz County Adult Det. Fac.,1109 Arizona Ave.,Parker,La Paz,AZ,85344,Phoenix,34.146226,-114.290189,USMS IGA,Federal
LAPLACO,La Plata County Jail,742 Turner Drive,Durango,La Plata,CO,81303,Denver,37.247535,-107.878657,USMS IGA,Federal
LARCOWY,Laramie County Jail,1910 Pioneer Avenue,Cheyenne,Laramie,WY,82001,Denver,41.134753,-104.820095,USMS IGA,Federal
LARELKY,Laurel County Corrections,203 South Broad St.,London,Laurel,KY,40741,Chicago,37.056703,-84.071207,USMS IGA,Federal
LARIMCO,Larimer County Jail,2405 Midpoint Drive,Fort Collins,Larimer,CO,80525,Denver,40.563822,-105.032162,USMS IGA,Federal
LASALTX,Lasalle County Jail,703 N Main Street,Cotulla,La Salle,TX,78014,San Antonio,28.444703,-99.236658,Other,Other/Unknown
LASANCO,Las Animas County Jail,2309 East Main Street,Trinidad,Las Animas,CO,81082,Denver,37.180085,-104.485628,IGSA,Non-Dedicated
LASHOLD,Las Cruces Hold Room,,Las Cruces,Dona Ana,NM,,El Paso,32.31994,-106.763654,Hold,Hold/Staging
LASWOCA,Las Colinas Women Det Fac,9000 Cottonwood Avenue,Santee,San Diego,CA,92071,San Diego,32.840379,-116.973663,IGSA,Non-Dedicated
LAURITX,Laurel Ridge Treatment Ctr,17720 Corporate Woods Dr,San Antonio,Bexar,TX,78259,San Antonio,29.602535,-98.437626,Hospital,Medical
LAVACTX,Lavaca County Jail,38 Fm 3180 Po Box 373,Hallettsville,Lavaca,TX,77964,Houston,29.443853,-96.941093,Unknown,Other/Unknown
LAWINCI,Winn Corr Institute,560 Gum Spring Road,Winnfield,Winn,LA,71483,New Orleans,31.849565,-92.801514,DIGSA,Dedicated
LAWREPA,Lawrence County Jail,111 South Milton Street,New Castle,Lawrence,PA,16101,Philadelphia,40.99907,-80.337824,USMS IGA,Federal
LAWRESD,"Lawrence Co. Jail, SD",80 Sherman Street,Deadwood,Lawrence,SD,57732,St. Paul,44.375136,-103.729316,IGSA,Non-Dedicated
LBJHSTX,Harris Health LBJ Hospital,5656 Kelley St,Houston,Harris,TX,77026,Houston,29.812018,-95.311969,Hospital,Medical
LBKHOLD,Lubbock Hold Room,"1205 Texas Ave, Suite 605",Lubbock,Lubbock,TX,79401,Dallas,33.58437,-101.845109,Hold,Hold/Staging
LCIMCTX,La Copa Inn Hotel,,South Padre Island,Cameron,TX,,Harlingen,26.086069,-97.162191,Family Staging,Family/Youth
LDFHOLD,Loveland Holdroom,350 E. 7th Street,Loveland,Larimer,CO,80537,Denver,40.398476,-105.07252,Hold,Hold/Staging
LEACONM,Lea County Jail,1401 South Commercial Street,Lovington,Lea,NM,88260,El Paso,32.934241,-103.339055,USMS IGA,Federal
LEHIGPA,"Lehigh County Jail, PA",38 N 4th St,Allentown,Lehigh,PA,18102,Philadelphia,40.604794,-75.465722,USMS IGA,Federal
LEVYCFL,Levy County Jail,9150 NE 80th Ave,Bronson,Levy,FL,32621,Miami,29.466674,-82.641128,IGSA,Non-Dedicated
LEWISMT,Lewis & Clark County Jail,221 Breckenridge Street,Helena,Lewis And Clark,MT,59601,Salt Lake City,46.586379,-112.036538,IGSA,Non-Dedicated
LEWISNY,Lewis County Jail,5252 Outer Stowe Street,Lowville,Lewis,NY,13367,Buffalo,43.778601,-75.500889,IGSA,Non-Dedicated
LEXFCKY,Lexington Processing @ Fayette Co,600 Old Frankford Cr,Lexington,Fayette,KY,40510,Chicago,38.066145,-84.544855,USMS IGA,Federal
LEXINSC,Lexington County Jail,521 Gibson Road,Lexington,Lexington,SC,29072,Atlanta,33.978481,-81.25084,USMS IGA,Federal
LFRESTX,Los Fresnos Police Dept.,200 N Brazil Street,Los Fresnos,Cameron,TX,78566,Harlingen,26.074105,-97.47832,Unknown,Other/Unknown
LHMCBMA,Lahey Hospital & Med Ctr,41 Mall Road,Burlington,Middlesex,MA,01803,Boston,42.484282,-71.205243,Hospital,Medical
LICEPLA,Louisiana Ice Processing Center,17544 Tunica Trace,Angola,West Feliciana,LA,70712,New Orleans,30.941263,-91.568381,SPC,Dedicated
LIMCJTX,Limestone County Jail,910 Tyus St,Groesbeck,Limestone,TX,76642,Houston,31.526836,-96.514819,Unknown,Other/Unknown
LIMESTX,Limestone Det Center,910 North Tyus Street,Groesbeck,Limestone,TX,76642,Houston,31.528784,-96.512347,USMS IGA,Federal
LIMMCTX,Limeston Medical Center,701 McClintic Dr,Groesbeck,Limestone,TX,76642,Houston,31.532817,-96.531246,Hospital,Medical
LINCOMO,Lincoln County Sheriff's,65 Business Park Drive,Troy,Lincoln,MO,63379,Chicago,38.971014,-90.96348,IGSA,Non-Dedicated
LINCONE,Lincoln County Jail,3020 N Jeffers,North Platte,Lincoln,NE,69101,St. Paul,41.107277,-100.764118,IGSA,Non-Dedicated
LINNCOR,Linn Co Jail,1115 Jackson Street Southeast,Albany,Linn,OR,97322,Seattle,44.62943,-123.097821,IGSA,Non-Dedicated
LINNJIA,Linn County Jail,53 3rd Avenue Bridge,Cedar Rapids,Linn,IA,52401,St. Paul,41.975295,-91.670085,USMS IGA,Federal
LIRSFCO,LIRS - LFSRM Fort Collins LTFC CO,"2032 Lowe Street, Suite 200",Fort Collins,Larimer,CO,80525,Denver,40.532993,-105.039886,,Other/Unknown
LIVINNY,Livingston County Jail,4 Court Street,Geneseo,Livingston,NY,14454,Buffalo,42.800297,-77.816272,USMS IGA,Federal
LKLNDLA,Lakeland Nursing Home,81 Hillsdale Dr.,Pineville,Rapides,LA,71360,New Orleans,31.3402,-92.39921,Hospital,Medical
LLUMCCA,Loma Linda University Med Center,11234 Anderson Street,Loma Linda,San Bernardino,CA,92354,Los Angeles,34.049112,-117.263436,Hospital,Medical
LOCMHNY,Lockport Memorial Hospital,6001 Shimer Dr,Lockport,Niagara,NY,14094,Buffalo,43.149399,-78.706205,Medical,Medical
LOGANOK,Logan County Jail,216 S Broad St,Guthrie,Logan,OK,73044,Dallas,35.876543,-97.42245,USMS IGA,Federal
LONPDAR,Lonoke Police Dept Det.Ctr,203 W. Front Street,Lonoke,Lonoke,AR,72086,New Orleans,34.541614,-91.754807,IGSA,Non-Dedicated
LOSCJCA,Los Angeles County Jail-Twin Tower,450 Bauchet Street,Los Angeles,Los Angeles,CA,90012,Los Angeles,34.059058,-118.231341,IGSA,Non-Dedicated
LOSHOLD,Los Cust Case,300 N. Los Angeles St. Rm B-18,San Pedro,Los Angeles,CA,90731,Los Angeles,34.054044,-118.239721,Hold,Hold/Staging
LOUCOVA,Loudoun County,42035 Loudoun Center Place,Leesburg,Loudoun,VA,20175,Washington,39.075238,-77.544925,USMS IGA,Federal
LOUHOLD,Louisville Hold Room,400 S 6th Street,Louisville,Jefferson,KY,40202,Chicago,38.253202,-85.761072,Hold,Hold/Staging
LOYMCIL,Loyola Medical Center,2160 S. First Ave.,Maywood,Cook,IL,60153,Chicago,41.86058,-87.834527,Hospital,Medical
LPAPSAZ,La Palma Corr Ctr APSO,5501 North La Palma Road,Eloy,Pinal,AZ,85131,Phoenix,32.65,-111.59,DIGSA,Dedicated
LPD77CA,Los Angeles Police PD 77th Div.,7600 S Broadway,Los Angeles,Los Angeles,CA,90003,Los Angeles,33.97028,-118.277969,Unknown,Other/Unknown
LPLCCAZ,La Palma Correctional Center,5501 North La Palma Road,Eloy,Pinal,AZ,85131,Phoenix,32.824211,-111.54419,DIGSA,Dedicated
LPZRHAZ,La Paz Regional Hospital,1200 Mohave Rd,Parker,La Paz,AZ,85344,Phoenix,34.136437,-114.28534,Hospital,Medical
LQSNATX,La Quinta Inn By Wyndham SNA,,San Antonio,Bexar,TX,,San Antonio,29.351026,-98.429089,Hotel,Hotel
LQWCSTX,La Quinta Wyndham Casa Do Sonho,,Cotulla,La Salle,TX,,San Antonio,28.444597,-99.245043,Family Staging,Family/Youth
LRAHOLD,Little Rock Hold Room,2900 S Woodrow St,Little Rock,Pulaski,AR,72204,New Orleans,34.723782,-92.307733,Hold,Hold/Staging
LRDHOLD,Laredo Detention Center Hold Room,4702 East Saunders Street,Laredo,Webb,TX,78041,Harlingen,27.529078,-99.44792,Hold,Hold/Staging
LRDICDF,Laredo Processing Center,4702 East Saunders Street,Laredo,Webb,TX,78041,Harlingen,27.529476,-99.447773,DIGSA,Dedicated
LRDMCTX,Laredo Medical Center,1700 E Saunders St,Laredo,Webb,TX,78041,Harlingen,27.532514,-99.477983,Hospital,Medical
LRKBHFL,Larkin Behavioral Health Svcs,1201 N 37th Ave,Hollywood,Broward,FL,33021,Miami,26.021177,-80.180662,Hospital,Medical
LRKMCFL,Lower Keys Medical Center,5900 College Road,Key West,Monroe,FL,33040,Miami,24.581324,-81.742495,Hospital,Medical
LRKNHFL,Larkin Hospital,6129 SW 70th St,South Miami,Miami-Dade,FL,33143,Miami,25.706271,-80.292667,Hospital,Medical
LSFHOLD,Los Fresnos Hold Room,213 Orive Blvd,Los Fresnos,Cameron,TX,78566,Harlingen,26.074567,-97.512181,Hold,Hold/Staging
LSHOSMA,Lemuel Shattuck Hospital,170 Morton Street,Jamaica Plain,Suffolk,MA,02130,Boston,42.29991,-71.10634,Hospital,Medical
LSRDCTX,La Salle Co Regional Det. Center,832 East Texas State Highway 44,Encinal,La Salle,TX,78019,San Antonio,28.045288,-99.336083,USMS IGA,Federal
LTVHOLD,"Lorton, VA Hold Room",2675 Prosperity Avenue,Fairfax,Fairfax,VA,20598,Washington,38.880738,-77.232342,Hold,Hold/Staging
LUBBOTX,Lubbock County Jail,811 Main Street,Lubbock,Lubbock,TX,79401,Dallas,33.585423,-101.843434,USMS IGA,Federal
LUFKNTX,Lufkin Police Dept.,300 E. Shepherd Street,Lufkin,Angelina,TX,75901,Houston,31.336934,-94.726863,Other,Other/Unknown
LUNCONM,Luna County Jail,1700 4th Street Northeast,Deming,Luna,NM,88030,El Paso,32.275782,-107.777403,IGSA,Non-Dedicated
LVGHOLD,Las Vegas Hold Room,3373 Pepper Lane,Las Vegas,Clark,NV,89120,Salt Lake City,36.058347,-115.225127,Hold,Hold/Staging
LVYHOPA,Lehigh Valley Hospital - Pocono,206 Brown St,East Stroudsburg,Monroe,PA,18301,Philadelphia,40.99273,-75.175347,Hospital,Medical
LYOLAIL,Loyola Center For Health,1211 W Roosevelt Rd,Maywood,Cook,IL,60153,Chicago,41.864289,-87.847157,Hospital,Medical
MABSHOS,Bwater St Hosp Bridgewate,Bridgewater State Hospital,Bridgewater,Plymouth,MA,02324,Boston,41.946698,-70.952616,Hospital,Medical
MACCOMI,"Macomb Co.Mt.Clemens,MI.",43565 Elizabeth Road,Mount Clemens,Macomb,MI,48043,Detroit,42.612528,-82.882274,USMS IGA,Federal
MADISID,Madison County Jail,15 North 2nd Street East,Rexburg,Madison,ID,83440,Salt Lake City,43.827089,-111.779306,IGSA,Non-Dedicated
MADISMS,"Madison Co. Jail, MS.",2935 Highway 51,Canton,Madison,MS,39046,New Orleans,32.643411,-90.023566,IGSA,Non-Dedicated
MADISNY,Madison County Jail,138 North Court Street,Wampsville,Madison,NY,13163,Buffalo,43.080706,-75.707453,USMS IGA,Federal
MAHONOH,Mahoning County Jail,110 Fifth Avenue,Youngstown,Mahoning,OH,44503,Detroit,41.104242,-80.654914,IGSA,Non-Dedicated
MANATFL,Manatee County Detention-Annex,11490 Harlee Rd.,Palmetto,Manatee,FL,34221,Miami,27.637592,-82.539955,IGSA,Non-Dedicated
MANHOLD,Manchester Holdroom,811 Canal Street,Manchester,Hillsborough,NH,03101,Boston,42.998519,-71.466598,Hold,Hold/Staging
